stop_id,stop_code,stop_name,stop_desc,stop_lat,stop_lon,zone_id,stop_url,location_type,platform_code,parent_station
101_02,,富山駅前,,36.700836,137.213574428571,101_02,,0,,
101_03,,富山駅前,,36.700962,137.213486,101_03,,0,,
101_04,,富山駅前,,36.701038,137.21294,101_04,,0,,
101_05,,富山駅前,,36.700862,137.212855,101_05,,0,,
101_06,,富山駅前,,36.700707,137.212892,101_06,,0,,
101_07,,富山駅前,,36.700561,137.213016,101_07,,0,,
101_08,,富山駅前,,36.699688,137.213219,101_08,,0,,
101_11,,富山駅前,,36.699761,137.212934285714,101_11,,0,,
102_01,,富山市役所前,,36.695167,137.213112,102_01,,0,,
102_02,,富山市役所前,,36.695257,137.213128,102_02,,0,,
102_03,,富山市役所前,,36.695322,137.213139,102_03,,0,,
102_04,,富山市役所前,,36.695417,137.213155,102_04,,0,,
102_05,,富山市役所前,,36.695498,137.21316,102_05,,0,,
102_06,,富山市役所前,,36.695576,137.213166,102_06,,0,,
102_08,,富山市役所前,,36.695838,137.212903,102_08,,0,,
102_09,,富山市役所前,,36.695735,137.212898,102_09,,0,,
103_01,,城址公園前,,36.692526,137.212849,103_01,,0,,
103_02,,城址公園前,,36.692616,137.212849,103_02,,0,,
103_03,,城址公園前,,36.692732,137.212865,103_03,,0,,
103_05,,城址公園前,,36.693287,137.212919,103_05,,0,,
103_07,,城址公園前,,36.691838,137.211605,103_07,,0,,
103_08,,城址公園前,,36.692823,137.21256,103_08,,0,,
104_01,,荒町,,36.69186971,137.215002554762,104_01,,0,,
104_02,,荒町,,36.6917668164346,137.214550250118,104_02,,0,,
105_01,,北新町,,36.6923687666666,137.222170996667,105_01,,0,,
105_02,,北新町,,36.6916726406068,137.221500203214,105_02,,0,,
105_03,,北新町,,36.6921694217613,137.220603651603,105_03,,0,,
106_01,,東町（富山）,,36.69280297,137.227164872381,106_01,,0,,
106_02,,東町（富山）,,36.6925503042568,137.225425379239,106_02,,0,,
107_01,,舘出,,36.6945669566667,137.23147999,107_01,,0,,
107_02,,舘出,,36.6934694379257,137.229415097434,107_02,,0,,
108_01,,双代町,,36.69548615,137.235781595238,108_01,,0,,
108_02,,双代町,,36.6954515788084,137.23603205124,108_02,,0,,
109_01,,新田中,,36.69608632,137.242402263334,109_01,,0,,
109_02,,新田中,,36.6960136375903,137.243048236382,109_02,,0,,
110_01,,新荒川,,36.69626367,137.246335080952,110_01,,0,,
110_02,,新荒川,,36.6961057944599,137.24561259363,110_02,,0,,
111_01,,東荒川,,36.6963950366666,137.249520727144,111_01,,0,,
112_01,,新庄新町,,36.6966571366667,137.253449837142,112_01,,0,,
112_02,,新庄新町,,36.6963299067683,137.250987757642,112_02,,0,,
112_03,,新庄新町,,36.6972903165424,137.251379196821,112_03,,0,,
113_01,,中新庄富山銀行前,,36.6972827766666,137.255370026191,113_01,,0,,
113_02,,中新庄富山銀行前,,36.6974366740521,137.255944663795,113_02,,0,,
114_01,,向新庄口,,36.7033952833333,137.259063722856,114_01,,0,,
114_02,,向新庄口,,36.7022276236772,137.259178005098,114_02,,0,,
114_03,,向新庄口,,36.7028586139056,137.260248863583,114_03,,0,,
115_01,,機械工業センター,,36.70670907,137.259003402381,115_01,,0,,
115_02,,機械工業センター,,36.7064642959018,137.259097538828,115_02,,0,,
116_01,,鶴ケ丘,,36.7152119133333,137.259677113333,116_01,,0,,
116_02,,鶴ケ丘,,36.7158384808739,137.260179752459,116_02,,0,,
117_01,,金泉寺,,36.71860704,137.261882282857,117_01,,0,,
117_02,,金泉寺,,36.7186961083014,137.262051587121,117_02,,0,,
118_01,,針原新町,,36.7222299200001,137.264279542381,118_01,,0,,
118_02,,針原新町,,36.7216644416348,137.263992539503,118_02,,0,,
118_03,,針原新町,,36.7220279469575,137.263234485264,118_03,,0,,
119_01,,針原小学校前,,36.7299955566667,137.269387565238,119_01,,0,,
119_02,,針原小学校前,,36.7291002521525,137.268886083222,119_02,,0,,
120_01,,町袋宮条,,36.73249929,137.278194679048,120_01,,0,,
120_02,,町袋宮条,,36.73259889171,137.277825121609,120_02,,0,,
121_01,,芝草口,,36.72991039,137.28458638,121_01,,0,,
121_02,,芝草口,,36.7293105739249,137.284505908734,121_02,,0,,
147_01,,東布施口,,36.85158551,137.43774215,147_01,,0,,
148_01,,田家新,,36.85452047,137.43908868,148_01,,0,,
149_01,,前沢口,,36.86295279,137.444702308095,149_01,,0,,
149_02,,前沢口,,36.8623989265046,137.444903254509,149_02,,0,,
154_01,,三上,,36.72285778,137.25901279,154_01,,0,,
155_01,,ケアハウスとやま前,,36.7253185600001,137.25841748,155_01,,0,,
156_01,,宮園町,,36.7266345833333,137.260633387619,156_01,,0,,
301_01,,総曲輪,,36.689554,137.212506,301_01,,0,,
301_02,,総曲輪,,36.689919,137.212543,301_02,,0,,
301_03,,総曲輪,,36.690057,137.212565,301_03,,0,,
301_04,,総曲輪,,36.690306,137.212597,301_04,,0,,
301_06,,総曲輪,,36.690659,137.212635,301_06,,0,,
301_07,,総曲輪,,36.690724,137.212645,301_07,,0,,
301_08,,総曲輪,,36.690857,137.212656,301_08,,0,,
301_09,,総曲輪,,36.690879,137.212366,301_09,,0,,
301_10,,総曲輪,,36.690522,137.212334,301_10,,0,,
303_01,,星井町１丁目,,36.6858593333333,137.212101,303_01,,0,,
303_02,,星井町１丁目,,36.685854,137.211885571429,303_02,,0,,
304_01,,星井町,,36.684347,137.211951047619,304_01,,0,,
304_02,,星井町,,36.684179,137.211713857143,304_02,,0,,
305_01,,西中野口,,36.680999,137.211137190477,305_01,,0,,
305_02,,西中野口,,36.6818863333333,137.211349238096,305_02,,0,,
306_01,,花園町,,36.678333,137.211105619047,306_01,,0,,
306_02,,花園町,,36.679913,137.210886,306_02,,0,,
307_01,,太郎丸口,,36.675918,137.210875619048,307_01,,0,,
307_02,,太郎丸口,,36.677479,137.210883714286,307_02,,0,,
308_01,,富山市民病院前,,36.672874,137.210690714286,308_01,,0,,
308_02,,富山市民病院前,,36.673355,137.210528285714,308_02,,0,,
309_01,,今泉（笹津）,,36.6696818399999,137.210407568571,309_01,,0,,
309_02,,今泉（笹津）,,36.6681070000001,137.21015,309_02,,0,,
309_03,,今泉（笹津）,,36.669897,137.20947,309_03,,0,,
309_04,,今泉（笹津）,,36.670004,137.2094,309_04,,0,,
310_01,,掛尾,,36.66543497,137.210096722857,310_01,,0,,
310_02,,掛尾,,36.6656941797466,137.209953523243,310_02,,0,,
311_01,,西上袋,,36.66093101,137.209884325714,311_01,,0,,
311_02,,西上袋,,36.6612913814958,137.209731949169,311_02,,0,,
312_01,,西赤田,,36.65652784,137.209819884286,312_01,,0,,
312_02,,西赤田,,36.6581007281264,137.209676441226,312_02,,0,,
313_01,,黒崎,,36.65092553,137.20971445,313_01,,0,,
313_02,,黒崎,,36.6519009996983,137.209570549698,313_02,,0,,
314_01,,最勝寺,,36.6442208199999,137.209602547143,314_01,,0,,
314_02,,最勝寺,,36.6452086999368,137.209426876416,314_02,,0,,
315_01,,小中,,36.63726346,137.209342218571,315_01,,0,,
315_02,,小中,,36.6379371030617,137.209163322177,315_02,,0,,
316_01,,下熊野,,36.63342801,137.209236784286,316_01,,0,,
316_02,,下熊野,,36.6341216816059,137.209044136996,316_02,,0,,
316_03,,下熊野,,36.6328445828083,137.209700544394,316_03,,0,,
317_01,,安養寺,,36.6296546700001,137.208144745714,317_01,,0,,
317_02,,安養寺,,36.6297942938735,137.208127756031,317_02,,0,,
318_01,,栗山,,36.62283971,137.204976694286,318_01,,0,,
318_02,,栗山,,36.6239696020428,137.204789454422,318_02,,0,,
319_01,,栗山南口,,36.62057484,137.205292538571,319_01,,0,,
319_02,,栗山南口,,36.6199455043809,137.205298024532,319_02,,0,,
320_01,,法林寺口,,36.61431146,137.205053435714,320_01,,0,,
320_02,,法林寺口,,36.6147439678974,137.205076217651,320_02,,0,,
321_01,,北陸電気工業前,,36.60989039,137.20454314,321_01,,0,,
321_02,,北陸電気工業前,,36.6107701895316,137.204578377697,321_02,,0,,
322_01,,大久保小学校前,,36.6042429199999,137.203440564286,322_01,,0,,
322_02,,大久保小学校前,,36.605183396752,137.203484502029,322_02,,0,,
323_01,,上大久保六区,,36.60014369,137.203467902857,323_01,,0,,
323_02,,上大久保六区,,36.6005839107394,137.203375230865,323_02,,0,,
324_01,,上大久保,,36.59583305,137.203792078571,324_01,,0,,
324_02,,上大久保,,36.5969259174332,137.203635287748,324_02,,0,,
325_01,,上二杉,,36.5906885,137.204810864286,325_01,,0,,
325_02,,上二杉,,36.5920737798096,137.204417327434,325_02,,0,,
326_01,,田村町,,36.58496943,137.206114238572,326_01,,0,,
326_02,,田村町,,36.5847179166778,137.206070267922,326_02,,0,,
328_01,,大沢野小学校前,,36.57797882,137.207085042857,328_01,,0,,
328_02,,大沢野小学校前,,36.5785149421235,137.20680052851,328_02,,0,,
329_01,,西大沢,,36.57486793,137.208571918571,329_01,,0,,
329_02,,西大沢,,36.5744778784164,137.208708278526,329_02,,0,,
330_01,,敷島紡績前,,36.57153339,137.209783171429,330_01,,0,,
330_02,,敷島紡績前,,36.571179516167,137.209789324832,330_02,,0,,
331_01,,笹津変電所前,,36.56629468,137.211165514286,331_01,,0,,
331_02,,笹津変電所前,,36.5658402422069,137.211371012672,331_02,,0,,
331_03,,笹津変電所前,,36.5671448395352,137.20999108538,331_03,,0,,
332_01,,笹津,,36.5640282900001,137.212701867143,332_01,,0,,
332_02,,笹津,,36.5637029302923,137.212890425382,332_02,,0,,
333_01,,笹津橋詰,,36.5563288366666,137.21741295381,333_01,,0,,
333_02,,笹津橋詰,,36.5564844757719,137.216961318272,333_02,,0,,
334_01,,第二発電所前,,36.5519041600001,137.223187307143,334_01,,0,,
334_02,,第二発電所前,,36.5519700731547,137.223046434719,334_02,,0,,
335_01,,岩稲,,36.5496974599999,137.224666132857,335_01,,0,,
335_02,,岩稲,,36.5498615037246,137.224564447959,335_02,,0,,
336_01,,岩稲温泉楽今日館,,36.54664379,137.22707736,336_01,,0,,
336_02,,岩稲温泉楽今日館,,36.5471706910501,137.226251322316,336_02,,0,,
337_01,,楡原口,,36.5352714599999,137.231325592857,337_01,,0,,
337_02,,楡原口,,36.5356085625664,137.23122841758,337_02,,0,,
338_01,,楡原,,36.53284844,137.231326582857,338_01,,0,,
338_02,,楡原,,36.5332552402671,137.231266823664,338_02,,0,,
339_01,,楡原駅前,,36.52900029,137.229134694285,339_01,,0,,
339_02,,楡原駅前,,36.5290425268242,137.22914857762,339_02,,0,,
340_01,,庵谷北口,,36.5131460999999,137.228022115714,340_01,,0,,
341_01,,庵谷,,36.5079976799999,137.229416447143,341_01,,0,,
341_02,,庵谷,,36.5085446566591,137.229099635824,341_02,,0,,
342_01,,片掛北口,,36.49558348,137.236171282857,342_01,,0,,
342_02,,片掛北口,,36.4960888977808,137.236246868679,342_02,,0,,
343_01,,片掛,,36.4898847,137.23727977,343_01,,0,,
344_01,,片掛南口,,36.4870002399999,137.238194084285,344_01,,0,,
345_01,,猪谷,,36.47247804,137.239752938571,345_01,,0,,
345_02,,猪谷,,36.4727693075499,137.239522778756,345_02,,0,,
356_01,,笹津駅前,,36.5621107033333,137.211453194762,356_01,,0,,
357_01,,笹津春日温泉,,36.56161353,137.200569388571,357_01,,0,,
358_01,,笹津関電前,,36.56264135,137.206488464286,358_01,,0,,
359_01,,春日（笹津）,,36.56234012,137.204867388572,359_01,,0,,
360_01,,富山市民病院,,36.6732612833333,137.212088675714,360_01,,0,,
361_01,,南央町,,36.6274294433333,137.202654791428,361_01,,0,,
362_01,,新保企業団地,,36.6290061633333,137.202875923333,362_01,,0,,
363_01,,栄町北口,,36.58969962,137.209038212857,363_01,,0,,
363_02,,栄町北口,,36.5896753694654,137.208543053589,363_02,,0,,
364_01,,大沢野中学校口,,36.5895998,137.213039705715,364_01,,0,,
364_02,,大沢野中学校口,,36.589580606698,137.212851547092,364_02,,0,,
365_01,,坂本二区,,36.5878012499999,137.21787045,365_01,,0,,
367_01,,大沢野健康福祉センター前,,36.56242633,137.202285597143,367_01,,0,,
367_02,,大沢野健康福祉センター前,,36.5625105015095,137.202175147548,367_02,,0,,
385_01,,町村二丁目,,36.6787721066666,137.259925441429,385_01,,0,,
385_02,,町村二丁目,,36.6785683741247,137.259766456168,385_02,,0,,
387_01,,深谷,,36.5947322,137.1632149,387_01,,0,,
401_01,,西町,,36.68884,137.217017,401_01,,0,,
401_02,,西町,,36.688835,137.216867,401_02,,0,,
401_03,,西町,,36.688835,137.216749,401_03,,0,,
401_04,,西町,,36.688827,137.216604,401_04,,0,,
401_06,,西町,,36.688676,137.215285,401_06,,0,,
401_08,,西町,,36.688702,137.214861,401_08,,0,,
402_01,,中教院前,,36.6889203999999,137.219819005715,402_01,,0,,
402_02,,中教院前,,36.6887778983115,137.219757970403,402_02,,0,,
402_03,,中教院前,,36.6898157346443,137.22114813179,402_03,,0,,
403_01,,清水町,,36.6887473,137.225189295238,403_01,,0,,
403_02,,清水町,,36.6886224013109,137.225319560361,403_02,,0,,
404_01,,元町,,36.68863045,137.229960604286,404_01,,0,,
404_02,,元町,,36.6885190679775,137.229671941314,404_02,,0,,
405_01,,石金,,36.68803289,137.235088111905,405_01,,0,,
405_02,,石金,,36.6878026333867,137.235782265495,405_02,,0,,
406_01,,西長江,,36.68714522,137.23968975,406_01,,0,,
406_02,,西長江,,36.6869275026279,137.240163369342,406_02,,0,,
407_01,,東長江,,36.68629042,137.243482425714,407_01,,0,,
407_02,,東長江,,36.6861498343047,137.24347426421,407_02,,0,,
407_03,,東長江,,36.6859348343047,137.242559978496,407_03,,0,,
408_01,,秋吉,,36.68438986,137.248186858572,408_01,,0,,
408_02,,秋吉,,36.6846884400617,137.247168877975,408_02,,0,,
409_01,,天正寺,,36.68334582,137.25061493,409_01,,0,,
409_02,,天正寺,,36.6838079524708,137.249325015582,409_02,,0,,
410_01,,町村,,36.6805038066667,137.256647269524,410_01,,0,,
410_02,,町村,,36.6805089562904,137.256963879366,410_02,,0,,
411_01,,大島新町,,36.6770798,137.265451477143,411_01,,0,,
411_02,,大島新町,,36.6769702490539,137.265960034893,411_02,,0,,
411_03,,大島新町,,36.6768023705251,137.267200241866,411_03,,0,,
412_01,,大島（藤の木）,,36.67541344,137.273546152857,412_01,,0,,
412_02,,大島（藤の木）,,36.6753867534435,137.273674066042,412_02,,0,,
414_01,,日置,,36.67044597,137.28984722,414_01,,0,,
414_02,,日置,,36.6706293660573,137.289487667362,414_02,,0,,
415_01,,蔵本口,,36.6684415600002,137.293646771429,415_01,,0,,
415_02,,蔵本口,,36.6678593660571,137.294464810219,415_02,,0,,
416_01,,大石原,,36.6656601,137.299249195715,416_01,,0,,
416_02,,大石原,,36.6654549016859,137.299468517303,416_02,,0,,
417_01,,同心口,,36.6643520700001,137.304218534286,417_01,,0,,
417_02,,同心口,,36.6644749016858,137.303102803018,417_02,,0,,
418_01,,草野,,36.6642372600001,137.306156547143,418_01,,0,,
418_02,,草野,,36.6641705501423,137.305856730952,418_02,,0,,
419_01,,雄山高校前,,36.6641224033333,137.31077418,419_01,,0,,
419_02,,雄山高校前,,36.6640855501423,137.309811016666,419_02,,0,,
420_01,,立山町役場前,,36.66407889,137.313201418572,420_01,,0,,
420_02,,立山町役場前,,36.6640003666369,137.313549390382,420_02,,0,,
421_01,,五百石駅前,,36.66532662,137.314629697143,421_01,,0,,
422_01,,五百石,,36.6640283133334,137.31578810619,422_01,,0,,
422_02,,五百石,,36.6640389117607,137.317417024654,422_02,,0,,
423_01,,米沢,,36.66240824,137.319695975715,423_01,,0,,
424_01,,上町（大森）,,36.65855317,137.318099801428,424_01,,0,,
450_01,,蔵本団地,,36.6651219333333,137.29469859,450_01,,0,,
451_01,,町村西口,,36.68183132,137.25437277,451_01,,0,,
451_02,,町村西口,,36.6826152444044,137.25221250946,451_02,,0,,
452_01,,蔵本新,,36.66040878,137.29441134,452_01,,0,,
460_02,,藤の木台,,36.6763209871474,137.26951081204,460_02,,0,,
460_03,,藤の木台,,36.6758409345791,137.271643280983,460_03,,0,,
500_01,,富山赤十字病院,,36.7084114166667,137.209394458571,500_01,,0,,
505_01,,永楽町,,36.7030807166667,137.220237294286,505_01,,0,,
505_02,,永楽町,,36.7029742343062,137.22025227398,505_02,,0,,
515_01,,昭和町,,36.7448507401831,137.227381467819,515_01,,0,,
515_02,,昭和町,,36.7449152183435,137.227504849434,515_02,,0,,
516_01,,西の宮町,,36.7483926627941,137.227939367294,516_01,,0,,
517_01,,東岩瀬駅,,36.752493176628,137.230449914932,517_01,,0,,
520_01,,岩瀬浜駅前,,36.7616025545154,137.233531966545,520_01,,0,,
521_01,,岩瀬浜,,36.7620387132615,137.235540747643,521_01,,0,,
601_01,,水橋新保新町,,36.73760922,137.288450462857,601_01,,0,,
601_02,,水橋新保新町,,36.7392712621322,137.289495048988,601_02,,0,,
602_01,,水橋新保,,36.74210742,137.292032658571,602_01,,0,,
602_02,,水橋新保,,36.7418229287987,137.291839810893,602_02,,0,,
603_01,,水橋口,,36.7470569900002,137.300185235715,603_01,,0,,
603_02,,水橋口,,36.7466645954654,137.300064572798,603_02,,0,,
604_01,,水橋西部地区センター前,,36.75049748,137.301459291428,604_01,,0,,
604_02,,水橋西部地区センター前,,36.7503697779182,137.301436794971,604_02,,0,,
605_01,,浄土橋,,36.75290822,137.30213518,605_01,,0,,
605_02,,浄土橋,,36.752898119061,137.302222715512,605_02,,0,,
606_01,,東大町,,36.7533365166667,137.304607002857,606_01,,0,,
606_02,,東大町,,36.7532892332241,137.304452279176,606_02,,0,,
607_01,,照蓮寺前,,36.75543366,137.304936335714,607_01,,0,,
608_01,,水橋田町,,36.7570549633333,137.305131356667,608_01,,0,,
608_02,,水橋田町,,36.757242813436,137.305272037197,608_02,,0,,
609_01,,東出町,,36.75836862,137.307708451905,609_01,,0,,
610_01,,朝日町,,36.75855837,137.313371195714,610_01,,0,,
611_01,,高月町,,36.7584602286867,137.321883737711,611_01,,0,,
611_02,,高月町,,36.7584324272583,137.321991537297,611_02,,0,,
616_01,,中滑川,,36.76283622,137.340186068096,616_01,,0,,
616_02,,中滑川,,36.7627166541147,137.34029535293,616_02,,0,,
617_01,,晒屋口,,36.76347284,137.34132417,617_01,,0,,
618_01,,吾妻町,,36.76685921,137.343330995714,618_01,,0,,
619_01,,厚生連滑川病院口,,36.76900271,137.345457888571,619_01,,0,,
620_01,,滑川駅前,,36.7697641966667,137.348393754762,620_01,,0,,
620_02,,滑川駅前,,36.7695357605591,137.348290399937,620_02,,0,,
624_01,,日参製薬前,,36.7592175,137.32654856,624_01,,0,,
625_01,,田中小学校前,,36.75990427,137.333147444286,625_01,,0,,
626_01,,河端町,,36.76077752,137.334968565714,626_01,,0,,
629_01,,水橋中村町,,36.7548184966667,137.310239805714,629_01,,0,,
630_01,,滑川高校前,,36.75942121,137.32987354,630_01,,0,,
631_01,,水橋東部団地口,,36.7533843299999,137.313580374287,631_01,,0,,
632_01,,水橋東部団地,,36.7494745633334,137.315863030476,632_01,,0,,
633_01,,東出町口,,36.75824591,137.311195248571,633_01,,0,,
634_01,,中新町団地,,36.7352275966667,137.287662153334,634_01,,0,,
634_02,,中新町団地,,36.735246262132,137.287757906131,634_02,,0,,
701_01,,音羽町,,36.6907228700001,137.226676609047,701_01,,0,,
701_02,,音羽町,,36.6897290574604,137.226711261476,701_02,,0,,
702_01,,稲荷元町,,36.69564352,137.22594241,702_01,,0,,
703_01,,奥田中学校口,,36.701017,137.22645879,703_01,,0,,
704_01,,奥井,,36.7041216599999,137.22841805381,704_01,,0,,
704_02,,奥井,,36.7044507194464,137.228730619283,704_02,,0,,
705_01,,上赤江住宅前,,36.7087424500001,137.231226685715,705_01,,0,,
705_02,,上赤江住宅前,,36.7082162978903,137.231076384517,705_02,,0,,
706_01,,上赤江,,36.7106560633335,137.23172005,706_01,,0,,
706_02,,上赤江,,36.7103807587448,137.231782854761,706_02,,0,,
707_01,,上赤江口,,36.71300239,137.232240414286,707_01,,0,,
707_02,,上赤江口,,36.7132426861444,137.232370491671,707_02,,0,,
708_01,,下赤江,,36.7163412233333,137.233092392381,708_01,,0,,
708_02,,下赤江,,36.7158248037609,137.233024833608,708_02,,0,,
709_01,,下冨居口,,36.7200178366668,137.234057559524,709_01,,0,,
709_02,,下冨居口,,36.7189355881543,137.233872293276,709_02,,0,,
710_01,,豊田口,,36.7255089033333,137.236750409524,710_01,,0,,
710_02,,豊田口,,36.7255678316267,137.236895494352,710_02,,0,,
711_01,,豊若町,,36.73040044,137.23834846381,711_01,,0,,
711_02,,豊若町,,36.73034879876,137.238360331661,711_02,,0,,
712_01,,米田すずかけ台,,36.7336304066667,137.241084487143,712_01,,0,,
712_02,,米田すずかけ台,,36.7336128107232,137.241123708,712_02,,0,,
713_01,,米田,,36.73502676,137.242135368571,713_01,,0,,
713_02,,米田,,36.7355518518303,137.242433208013,713_02,,0,,
714_01,,中田,,36.74301796,137.245016252857,714_01,,0,,
714_02,,中田,,36.7429132488019,137.245095242424,714_02,,0,,
715_01,,中田北口,,36.7451824433333,137.245141999524,715_01,,0,,
715_02,,中田北口,,36.7452031562057,137.245302007632,715_02,,0,,
716_01,,加古町,,36.7523814223115,137.245008945465,716_01,,0,,
719_01,,永久町口,,36.7482551030978,137.245094776154,719_01,,0,,
720_01,,豊田本町一丁目,,36.7294849133333,137.234269548571,720_01,,0,,
721_01,,犬島六丁目,,36.7328969666666,137.2326046,721_01,,0,,
722_01,,犬島四丁目,,36.7354709,137.231202718571,722_01,,0,,
723_01,,米田すずかけ台団地,,36.7361248866667,137.238041496667,723_01,,0,,
725_01,,豊田本町,,36.72811824,137.237380591429,725_01,,0,,
725_02,,豊田本町,,36.7281354517988,137.237497711939,725_02,,0,,
801_01,,富山斎場前,,36.62905513,137.288211738571,801_01,,0,,
802_01,,西の番南口,,36.63263714,137.28251264,802_01,,0,,
803_01,,西の番,,36.63675153,137.276035852857,803_01,,0,,
804_01,,西の番公民館前,,36.63863806,137.27284085,804_01,,0,,
805_01,,西の番北口,,36.64075585,137.269962628571,805_01,,0,,
805_02,,西の番北口,,36.6407307548818,137.27006739284,805_02,,0,,
806_01,,中村口,,36.64385752,137.265515347143,806_01,,0,,
807_01,,城村,,36.64546446,137.263255982857,807_01,,0,,
807_02,,城村,,36.6459088705902,137.26253574981,807_02,,0,,
807_03,,城村,,36.6458909515423,137.262664096404,807_03,,0,,
807_04,,城村,,36.645406705816,137.263183634749,807_04,,0,,
808_01,,城ヶ丘,,36.64927011,137.270328221429,808_01,,0,,
809_01,,大場,,36.65134235,137.275484517143,809_01,,0,,
810_01,,城村口,,36.6479256899999,137.260591928572,810_01,,0,,
811_01,,八川,,36.6503128999999,137.258297398571,811_01,,0,,
812_01,,石屋,,36.65267454,137.254339312857,812_01,,0,,
813_01,,太田小学校前,,36.65438964,137.251280534286,813_01,,0,,
813_02,,太田小学校前,,36.6544076402185,137.251129746437,813_02,,0,,
814_01,,太田,,36.6582809533333,137.246927867143,814_01,,0,,
815_01,,太田北口,,36.6639137833333,137.242410757143,815_01,,0,,
816_01,,山室中学校前,,36.6687945433334,137.239186539524,816_01,,0,,
816_02,,山室中学校前,,36.6683242332467,137.2390767179,816_02,,0,,
817_01,,山室,,36.6711919,137.239482221905,817_01,,0,,
817_02,,山室,,36.6714392332466,137.239482432186,817_02,,0,,
818_01,,高原町,,36.6749615233333,137.240961529524,818_01,,0,,
818_02,,高原町,,36.6740213692643,137.240855606799,818_02,,0,,
819_01,,不二栄町,,36.66842396,137.243432677143,819_01,,0,,
820_01,,不二栄口,,36.67012155,137.243375052857,820_01,,0,,
821_01,,高屋敷,,36.67206176,137.242192284286,821_01,,0,,
822_01,,高原西口,,36.67710886,137.239578701905,822_01,,0,,
822_02,,高原西口,,36.6769742054135,137.240082194105,822_02,,0,,
823_01,,中川原新町,,36.67650876,137.243612882857,823_01,,0,,
823_02,,中川原新町,,36.6764122994967,137.243939553282,823_02,,0,,
824_01,,中川原,,36.67330172,137.24951855,824_01,,0,,
824_02,,中川原,,36.6736318805098,137.249092200786,824_02,,0,,
825_01,,山室荒屋,,36.66880714,137.254199368572,825_01,,0,,
826_01,,横内,,36.66632586,137.258354454286,826_01,,0,,
827_01,,西の新,,36.66384726,137.263637215714,827_01,,0,,
828_01,,流杉,,36.66183648,137.267208465714,828_01,,0,,
829_01,,流杉東,,36.66026937,137.272367457143,829_01,,0,,
830_01,,松ヶ丘,,36.67517153,137.254148778572,830_01,,0,,
830_02,,松ヶ丘,,36.6752792710478,137.253075248417,830_02,,0,,
831_01,,新町村,,36.67468989,137.258418057143,831_01,,0,,
831_02,,新町村,,36.6746967422976,137.257226360265,831_02,,0,,
832_01,,第二機械センター前,,36.6734126,137.265628428572,832_01,,0,,
832_02,,第二機械センター前,,36.6734545620775,137.264774683721,832_02,,0,,
833_01,,大島口,,36.67189663,137.2754541,833_01,,0,,
833_02,,大島口,,36.6718079559821,137.274623551548,833_02,,0,,
833_03,,大島口,,36.672157614616,137.274990064712,833_03,,0,,
834_01,,中市,,36.6774367533333,137.237473059524,834_01,,0,,
834_02,,中市,,36.6775921118843,137.235894448705,834_02,,0,,
834_03,,中市,,36.6782900200279,137.236842903072,834_03,,0,,
835_01,,山室小学校前,,36.67954125,137.240695844286,835_01,,0,,
836_01,,不二越六丁目,,36.68190597,137.241248942857,836_01,,0,,
836_02,,不二越六丁目,,36.6822056037289,137.241893863395,836_02,,0,,
837_01,,不二越十二丁目,,36.68391845,137.242610904286,837_01,,0,,
839_01,,不二越正門前,,36.6842800409643,137.236433418283,839_01,,0,,
839_02,,不二越正門前,,36.6841030301753,137.236338879264,839_02,,0,,
841_01,,中央病院,,36.6924405366667,137.236957406191,841_01,,0,,
847_01,,飯野新屋,,36.7227268166667,137.249244494762,847_01,,0,,
848_01,,新屋橋,,36.7254517966667,137.249829854761,848_01,,0,,
850_01,,楠木,,36.73452312,137.255244394762,850_01,,0,,
850_02,,楠木,,36.7339733762405,137.255193485231,850_02,,0,,
851_01,,下飯野,,36.7375415166668,137.258899731428,851_01,,0,,
851_02,,下飯野,,36.7372682357911,137.25932494557,851_02,,0,,
854_01,,針原中町,,36.7333099633334,137.269168711429,854_01,,0,,
854_02,,針原中町,,36.7332828898487,137.270403419147,854_02,,0,,
855_01,,高島口,,36.7341794533333,137.266766550953,855_01,,0,,
856_01,,運転教育センター,,36.73321712,137.264800682857,856_01,,0,,
857_01,,上飯野,,36.70764948,137.249406077143,857_01,,0,,
857_02,,上飯野,,36.7079779010658,137.249524977337,857_02,,0,,
859_01,,上飯野北口,,36.71567136,137.248847272857,859_01,,0,,
859_02,,上飯野北口,,36.7157645021352,137.249310120101,859_02,,0,,
860_01,,古寺新町,,36.67285448,137.268624864286,860_01,,0,,
860_02,,古寺新町,,36.6728585381771,137.268102603065,860_02,,0,,
861_01,,山室中部小学校前,,36.67088931,137.251595632857,861_01,,0,,
861_02,,山室中部小学校前,,36.6710813557787,137.251379775538,861_02,,0,,
862_01,,下飯野東口,,36.73762927,137.262676675714,862_01,,0,,
863_01,,県リハビリセンター南口,,36.7436756143213,137.267255970746,863_01,,0,,
864_01,,中川原北口,,36.67570886,137.249328562857,864_01,,0,,
864_02,,中川原北口,,36.6757503582951,137.248821298005,864_02,,0,,
865_01,,上飯野新町,,36.70990938,137.252238717143,865_01,,0,,
865_02,,上飯野新町,,36.7097196278151,137.251883110936,865_02,,0,,
866_01,,上飯野団地,,36.71354147,137.254632514286,866_01,,0,,
866_02,,上飯野団地,,36.7129822925675,137.254476928402,866_02,,0,,
875_01,,富山市民病院口,,36.67419097,137.212125584286,875_01,,0,,
875_02,,富山市民病院口,,36.674133445782,137.212271414806,875_02,,0,,
876_01,,太郎丸一区,,36.67434524,137.216202018572,876_01,,0,,
876_02,,太郎丸一区,,36.6743439084711,137.216439100685,876_02,,0,,
879_01,,東福沢,,36.6042171866667,137.257805764286,879_01,,0,,
879_02,,東福沢,,36.604340397188,137.257250547409,879_02,,0,,
880_01,,済生会病院,,36.7375271733333,137.255768223809,880_01,,0,,
881_01,,昭和新町,,36.65015842,137.27245961,881_01,,0,,
882_01,,片山学園前,,36.6014060899999,137.259770624285,882_01,,0,,
890_01,,流杉病院,,36.65890087,137.27629251,890_01,,0,,
899_01,,県リハビリセンター,,36.74493637,137.265603358571,899_01,,0,,
1001_01,,奥田中学校前,,36.7030126333333,137.224720926191,1001_01,,0,,
1001_02,,奥田中学校前,,36.7029680484782,137.224218213157,1001_02,,0,,
1002_03,,牛島新町,,36.702597077601,137.218301841425,1002_03,,0,,
1002_04,,牛島新町,,36.7025551114025,137.218131779898,1002_04,,0,,
1003_02,,北日本放送会館前,,36.7038422226041,137.214961614496,1003_02,,0,,
1003_03,,北日本放送会館前,,36.7043613828612,137.214998913495,1003_03,,0,,
1004_01,,湊入船町,,36.70732522,137.216404715714,1004_01,,0,,
1004_02,,湊入船町,,36.7078337910364,137.216475256097,1004_02,,0,,
1005_01,,双葉町,,36.7092822366666,137.217297824762,1005_01,,0,,
1005_02,,双葉町,,36.7098539500998,137.217465341421,1005_02,,0,,
1006_01,,奥田町,,36.7124399,137.218912488571,1006_01,,0,,
1006_02,,奥田町,,36.7131486592849,137.219324928736,1006_02,,0,,
1007_01,,奥田本町,,36.7148416933333,137.220717445714,1007_01,,0,,
1007_02,,奥田本町,,36.7150622021899,137.220807606659,1007_02,,0,,
1008_01,,千代田町,,36.71604932,137.22165244,1008_01,,0,,
1008_02,,千代田町,,36.7168484726907,137.221835126506,1008_02,,0,,
1009_01,,奥田北小学校前,,36.7195504466667,137.22129199,1009_01,,0,,
1010_01,,興人団地,,36.7195623333333,137.218321145238,1010_01,,0,,
1011_01,,下新北町３区,,36.7167286133334,137.218100007619,1011_01,,0,,
1012_01,,富山駅北口,,36.7021371999999,137.214065995237,1012_01,,0,,
1012_02,,富山駅北口,,36.7022588892705,137.214272090687,1012_02,,0,,
1012_03,,富山駅北口,,36.7023784757063,137.214256487558,1012_03,,0,,
1013_01,,富山県美術館,,36.7109993333333,137.211066095238,1013_01,,0,,
1013_02,,富山県美術館,,36.710997,137.210852428571,1013_02,,0,,
1200_01,,宮成口,,36.72494818,137.266043884286,1200_01,,0,,
1200_02,,宮成口,,36.7241569697662,137.265614715489,1200_02,,0,,
1200_03,,宮成口,,36.7250785183902,137.264797913811,1200_03,,0,,
1203_01,,問屋センター口,,36.70251313,137.249384492857,1203_01,,0,,
1203_02,,問屋センター口,,36.7026208945707,137.249473771021,1203_02,,0,,
1301_01,,新園町,,36.69753677,137.258099612857,1301_01,,0,,
1302_01,,自動車学校前,,36.69754667,137.261404018096,1302_01,,0,,
1303_01,,荏原新町,,36.69776247,137.264329728571,1303_01,,0,,
1304_01,,技術専門学院前,,36.7019850866667,137.264490710476,1304_01,,0,,
1305_01,,荏原,,36.6986250633333,137.264804082858,1305_01,,0,,
1309_01,,藤の木北口,,36.68889995,137.26902705,1309_01,,0,,
1310_01,,藤の木小学校前,,36.68685873,137.27100184,1310_01,,0,,
1311_01,,藤の木団地前,,36.68348842,137.272301261429,1311_01,,0,,
1312_01,,藤の木新町,,36.67983818,137.273282107143,1312_01,,0,,
1313_01,,金代,,36.68864267,137.26147224,1313_01,,0,,
1314_01,,新金代,,36.68617249,137.262046754286,1314_01,,0,,
1315_01,,開,,36.68324619,137.262509852857,1315_01,,0,,
1316_01,,藤代町,,36.6809544333332,137.264014991428,1316_01,,0,,
1332_01,,町新,,36.68915326,137.264628760952,1332_01,,0,,
1501_01,,雄山中学校前,,36.6561080766666,137.313144639999,1501_01,,0,,
1501_02,,雄山中学校前,,36.6582308687893,137.313695070321,1501_02,,0,,
1502_01,,貫田,,36.6545474133333,137.304396434285,1502_01,,0,,
1503_01,,八ツ屋口,,36.65189441,137.29991396,1503_01,,0,,
1504_01,,大清水,,36.64886872,137.299682238571,1504_01,,0,,
1504_02,,大清水,,36.6497988447761,137.299703078141,1504_02,,0,,
1505_01,,東大森,,36.6494891466667,137.29558087,1505_01,,0,,
1506_01,,公民館前（大森）,,36.64924482,137.291666555714,1506_01,,0,,
1507_01,,西大森,,36.64814169,137.288410481429,1507_01,,0,,
1508_01,,大橋,,36.6409922,137.291303974286,1508_01,,0,,
1509_01,,三ツ塚,,36.63542062,137.294493067143,1509_01,,0,,
1510_01,,一夜泊,,36.63246316,137.299818274286,1510_01,,0,,
1511_01,,西大森口,,36.6454017402849,137.289391224899,1511_01,,0,,
1701_01,,富山東高校前,,36.7402437600001,137.255599479047,1701_01,,0,,
1701_02,,富山東高校前,,36.7402994180814,137.255455527555,1701_02,,0,,
1701_03,,富山東高校前,,36.7405413768534,137.256350104276,1701_03,,0,,
1701_04,,富山東高校前,,36.7406168878456,137.255899764987,1701_04,,0,,
1703_01,,東富山駅口,,36.7422623333333,137.253157815714,1703_01,,0,,
1703_02,,東富山駅口,,36.7423940776598,137.252673732543,1703_02,,0,,
1704_01,,中田二丁目,,36.74593166,137.247312169048,1704_01,,0,,
1704_02,,中田二丁目,,36.7458548604044,137.247262929622,1704_02,,0,,
1707_01,,千原崎,,36.74580057,137.222061557143,1707_01,,0,,
1708_01,,草島,,36.74588669,137.210831942857,1708_01,,0,,
1708_02,,草島,,36.7461316924335,137.210783958435,1708_02,,0,,
1709_02,,金山新口,,36.746387,137.209019,1709_02,,0,,
1710_01,,荒屋（四方）,,36.753195,137.19935299,1710_01,,0,,
1710_02,,荒屋（四方）,,36.7532195601134,137.199432849884,1710_02,,0,,
1711_01,,南町,,36.75625353,137.197224694286,1711_01,,0,,
1711_02,,南町,,36.7562023683552,137.197372913361,1711_02,,0,,
1712_01,,ちてつ四方,,36.75598623,137.196111048571,1712_01,,0,,
1713_01,,四方町,,36.75838686,137.19551147,1713_01,,0,,
1713_02,,四方町,,36.7586678682089,137.195642772473,1713_02,,0,,
1714_01,,四方神明町,,36.75799209,137.194537364286,1714_01,,0,,
1715_01,,荒屋南部,,36.75061795,137.20109881,1715_01,,0,,
1715_02,,荒屋南部,,36.7499099671627,137.201492786407,1715_02,,0,,
1728_01,,射北中学校前,,36.76888748,137.1354335,1728_01,,0,,
1728_02,,射北中学校前,,36.7688396214641,137.135559192652,1728_02,,0,,
1729_01,,古明神,,36.77009531,137.128431025715,1729_01,,0,,
1729_02,,古明神,,36.7701175401365,137.128375070245,1729_02,,0,,
1730_01,,堀岡局前,,36.77175042,137.124723401429,1730_01,,0,,
1730_02,,堀岡局前,,36.7717294621868,137.124733913471,1730_02,,0,,
1731_01,,堀岡中町,,36.77254568,137.122174414286,1731_01,,0,,
1731_02,,堀岡中町,,36.7725358182728,137.122230363186,1731_02,,0,,
1732_01,,新港東口,,36.77314941,137.118644854285,1732_01,,0,,
1741_01,,新港の森,,36.76380164,137.087839161429,1741_01,,0,,
1741_02,,新港の森,,36.7636273571584,137.087933419157,1741_02,,0,,
1742_01,,牧野金屋,,36.7667309700001,137.086602734286,1742_01,,0,,
1742_02,,牧野金屋,,36.7661272880815,137.086876165172,1742_02,,0,,
1743_01,,姫野,,36.77165782,137.087206144286,1743_01,,0,,
1743_02,,姫野,,36.7715127055717,137.087200945598,1743_02,,0,,
1744_01,,中新湊駅前,,36.775776,137.087711531429,1744_01,,0,,
1744_02,,中新湊駅前,,36.7755599000925,137.087779836475,1744_02,,0,,
1745_01,,立町,,36.77885891,137.087208975714,1745_01,,0,,
1745_02,,立町,,36.7783590363278,137.087806854328,1745_02,,0,,
1746_01,,中央町,,36.78048543,137.083323451429,1746_01,,0,,
1746_02,,中央町,,36.7798741772226,137.08483336623,1746_02,,0,,
1747_01,,クロスベイ新湊,,36.7822910831486,137.079420436292,1747_01,,0,,
1748_01,,新湊高校前,,36.78067407,137.07723511,1748_01,,0,,
1748_02,,新湊高校前,,36.780865086433,137.077276842372,1748_02,,0,,
1749_01,,新湊車庫前,,36.77752,137.076242712857,1749_01,,0,,
1749_02,,新湊車庫前,,36.7776815083823,137.07620676562,1749_02,,0,,
1750_01,,新湊きっときと市場,,36.781361,137.099984898571,1750_01,,0,,
1753_01,,浜開,,36.76772023,137.140536395715,1753_01,,0,,
1753_02,,浜開,,36.7677006939158,137.140564076293,1753_02,,0,,
1754_01,,西海老江,,36.76615477,137.144468042857,1754_01,,0,,
1754_02,,西海老江,,36.766215525826,137.144306108066,1754_02,,0,,
1755_01,,海老江,,36.76512645,137.148120452857,1755_01,,0,,
1755_02,,海老江,,36.7651942351324,137.14789548772,1755_02,,0,,
1756_01,,海老江口,,36.76402873,137.151243867143,1756_01,,0,,
1756_02,,海老江口,,36.7640202466724,137.151219793303,1756_02,,0,,
1757_01,,槍ケ崎口,,36.76151003,137.156738598571,1757_01,,0,,
1757_02,,槍ケ崎口,,36.7615247853582,137.156709226543,1757_02,,0,,
1758_01,,練合,,36.76046044,137.160425102857,1758_01,,0,,
1758_02,,練合,,36.7604845420404,137.161162508986,1758_02,,0,,
1759_01,,練合東口,,36.76066533,137.164195607143,1759_01,,0,,
1759_02,,練合東口,,36.7606350446435,137.163636321836,1759_02,,0,,
1760_01,,足洗潟公園口,,36.7600255,137.167726181429,1760_01,,0,,
1760_02,,足洗潟公園口,,36.7599712301614,137.168150251748,1760_02,,0,,
1761_01,,足洗西口,,36.75963422,137.17024496,1761_01,,0,,
1761_02,,足洗西口,,36.7596728705352,137.170244810666,1761_02,,0,,
1762_01,,足洗,,36.7589527,137.174416662857,1762_01,,0,,
1762_02,,足洗,,36.7590899773071,137.173940203525,1762_02,,0,,
1764_01,,打出,,36.75679622,137.184573994286,1764_01,,0,,
1764_02,,打出,,36.7568626694526,137.184573181115,1764_02,,0,,
1765_01,,新出町,,36.75671894,137.188390441429,1765_01,,0,,
1765_02,,新出町,,36.7567802440119,137.189123952985,1765_02,,0,,
1768_01,,本江（新湊）,,36.75784625,137.178043378571,1768_01,,0,,
1768_02,,本江（新湊）,,36.7578853636244,137.177954420487,1768_02,,0,,
1770_01,,川の駅新湊,,36.7807438226077,137.086908817291,1770_01,,0,,
1770_02,,川の駅新湊,,36.7807567125065,137.086822986603,1770_02,,0,,
1771_01,,氷見漁港前,,36.86097695,136.98848277,1771_01,,0,,
1772_01,,ひみ番屋街,,36.8640602733333,136.987061812381,1772_01,,0,,
1785_01,,海王丸パーク,,36.78031621,137.107778591429,1785_01,,0,,
1801_01,,五番町,,36.6857810266667,137.221978312381,1801_01,,0,,
1801_02,,五番町,,36.6869088797695,137.22158995851,1801_02,,0,,
1802_01,,大泉町一丁目,,36.68323212,137.222386795714,1802_01,,0,,
1802_02,,大泉町一丁目,,36.6827609251102,137.222364262746,1802_02,,0,,
1804_01,,西大泉,,36.68175824,137.22416534,1804_01,,0,,
1804_02,,西大泉,,36.681684165825,137.22388601736,1804_02,,0,,
1805_01,,法蓮寺橋,,36.68194617,137.226046494286,1805_01,,0,,
1805_02,,法蓮寺橋,,36.681981252464,137.226685887769,1805_02,,0,,
1806_01,,西公文名,,36.68216906,137.229562055714,1806_01,,0,,
1806_02,,西公文名,,36.6824555402279,137.229496563737,1806_02,,0,,
1807_01,,大泉中学校前,,36.67900885,137.229257908571,1807_01,,0,,
1807_02,,大泉中学校前,,36.6792592875656,137.229160938072,1807_02,,0,,
1808_01,,大泉駅前,,36.67827292,137.230589528571,1808_01,,0,,
1808_02,,大泉駅前,,36.6781919918161,137.230743092842,1808_02,,0,,
1809_01,,青葉町,,36.67789962,137.233584508571,1809_01,,0,,
1809_02,,青葉町,,36.6778869918161,137.233188807128,1809_02,,0,,
1814_01,,大町南部,,36.6663286799999,137.223993173334,1814_01,,0,,
1814_02,,大町南部,,36.6660046599642,137.224026958531,1814_02,,0,,
1815_01,,大町南部口,,36.6638975099999,137.225334918572,1815_01,,0,,
1815_02,,大町南部口,,36.6646469421779,137.224787538567,1815_02,,0,,
1816_01,,下堀,,36.661041,137.226725268571,1816_01,,0,,
1816_02,,下堀,,36.6602865460462,137.226958847438,1816_02,,0,,
1817_01,,朝菜町六丁目,,36.6601085733333,137.220422058571,1817_01,,0,,
1818_01,,朝菜町駅前,,36.6600314266667,137.22415976,1818_01,,0,,
1819_01,,朝菜町三丁目,,36.6578561100001,137.225308304286,1819_01,,0,,
1820_01,,新堀町,,36.65620971,137.226330434286,1820_01,,0,,
1820_02,,新堀町,,36.6562284205634,137.226439892425,1820_02,,0,,
1821_01,,上堀町,,36.65605571,137.228817665714,1821_01,,0,,
1821_02,,上堀町,,36.6558562613743,137.228822128534,1821_02,,0,,
1821_03,,上堀町,,36.6565685633595,137.22957811995,1821_03,,0,,
1822_01,,堀町中央,,36.65675023,137.231629074287,1822_01,,0,,
1823_01,,堀（高専）,,36.65706305,137.23482425,1823_01,,0,,
1823_02,,堀（高専）,,36.6569450365873,137.23382308427,1823_02,,0,,
1824_01,,清住町口,,36.65724313,137.236729675714,1824_01,,0,,
1825_01,,西本郷（高専）,,36.65732058,137.2413564,1825_01,,0,,
1826_01,,国立高専前,,36.65113786,137.245081927143,1826_01,,0,,
1827_01,,本郷四区,,36.6543833666667,137.243597009524,1827_01,,0,,
1828_01,,本郷町五区,,36.6640886294749,137.234430905015,1828_01,,0,,
1829_01,,本郷新,,36.6675085478851,137.23060578467,1829_01,,0,,
1838_01,,上堀駅前,,36.65391167,137.229446941428,1838_01,,0,,
1838_02,,上堀駅前,,36.6541986826394,137.229348227092,1838_02,,0,,
1839_01,,小杉口（福沢）,,36.6485016133333,137.232348562857,1839_01,,0,,
1839_02,,小杉口（福沢）,,36.6486011532786,137.2321402939,1839_02,,0,,
1840_01,,布市,,36.64488106,137.23497435,1840_01,,0,,
1840_02,,布市,,36.6447042969365,137.234952645122,1840_02,,0,,
1841_01,,藤塚（月岡）,,36.63937885,137.23900735,1841_01,,0,,
1841_02,,藤塚（月岡）,,36.639477008597,137.238829482465,1841_02,,0,,
1842_03,,開発駅前,,36.635503808031,137.24215998509,1842_03,,0,,
1844_03,,焼野,,36.6248936917539,137.251528662429,1844_03,,0,,
1845_01,,月岡小学校前,,36.6225175900001,137.252273331429,1845_01,,0,,
1845_02,,月岡小学校前,,36.6226112293748,137.252284573826,1845_02,,0,,
1846_01,,月岡中学校前,,36.61729596,137.251457532857,1846_01,,0,,
1846_02,,月岡中学校前,,36.6172072821823,137.251443720645,1846_02,,0,,
1847_01,,中布目,,36.61216863,137.25115363,1847_01,,0,,
1847_02,,中布目,,36.6122928819547,137.251054220632,1847_02,,0,,
1848_01,,上今町,,36.6061139199999,137.253307461429,1848_01,,0,,
1848_02,,上今町,,36.6060749100023,137.253289625418,1848_02,,0,,
1849_01,,福沢口,,36.6027962099999,137.254687294286,1849_01,,0,,
1849_02,,福沢口,,36.6027872679227,137.254658834425,1849_02,,0,,
1850_01,,東福沢三区,,36.6014095399999,137.256137018572,1850_01,,0,,
1850_02,,東福沢三区,,36.6016290619053,137.255885654536,1850_02,,0,,
1851_01,,福沢,,36.59899996,137.260349644286,1851_01,,0,,
1852_01,,研修所前,,36.59946636,137.272700855715,1852_01,,0,,
1852_02,,研修所前,,36.5994227405104,137.272845694333,1852_02,,0,,
1853_01,,大泉西部,,36.6787171633334,137.22415779619,1853_01,,0,,
1853_02,,大泉西部,,36.6785601007768,137.224876678104,1853_02,,0,,
1854_01,,月岡団地,,36.62969597,137.2446565,1854_01,,0,,
1854_02,,月岡団地,,36.6296067487794,137.244710522178,1854_02,,0,,
1855_01,,富山国際大学,,36.59927015,137.276050992857,1855_01,,0,,
1856_01,,月見町五丁目,,36.6268402366667,137.24675505,1856_01,,0,,
1857_01,,月見町二丁目,,36.6322051500001,137.242647585714,1857_01,,0,,
1857_02,,月見町二丁目,,36.632241930964,137.242629241088,1857_02,,0,,
1858_01,,月岡西緑町,,36.6177452166667,137.247153413809,1858_01,,0,,
1903_01,,南富山駅前,,36.67185433,137.221263684286,1903_01,,0,,
1903_02,,南富山駅前,,36.6719752986077,137.221087489597,1903_02,,0,,
1905_01,,堀川南大町,,36.6679451433333,137.221397021429,1905_01,,0,,
1905_02,,堀川南大町,,36.6679498618443,137.221332854674,1905_02,,0,,
1906_01,,富山市農協前,,36.66554645,137.220741238571,1906_01,,0,,
1906_02,,富山市農協前,,36.6655349279834,137.220712446605,1906_02,,0,,
1907_01,,南堀川,,36.6617082600001,137.219765694286,1907_01,,0,,
1907_02,,南堀川,,36.6617067522075,137.219734258101,1907_02,,0,,
1908_01,,上袋,,36.6579251000001,137.218955715714,1908_01,,0,,
1908_02,,上袋,,36.6577334379021,137.218891343417,1908_02,,0,,
1910_01,,赤田（辰尾団地）,,36.65363331,137.217532058571,1910_01,,0,,
1910_02,,赤田（辰尾団地）,,36.6543280891232,137.217551794463,1910_02,,0,,
1911_01,,二俣,,36.64733182,137.218278892857,1911_01,,0,,
1912_01,,上野口（富山）,,36.6428789599999,137.217709559048,1912_01,,0,,
1912_02,,上野口（富山）,,36.6433898847418,137.217650064964,1912_02,,0,,
1913_01,,上野（熊野）,,36.63974755,137.218298357143,1913_01,,0,,
1913_02,,上野（熊野）,,36.639903414668,137.218261723704,1913_02,,0,,
1914_01,,若竹町,,36.6342947,137.21935981,1914_01,,0,,
1914_02,,若竹町,,36.6344161542793,137.219303821591,1914_02,,0,,
1916_01,,安養寺北口,,36.6328185066666,137.212144374762,1916_01,,0,,
1916_02,,安養寺北口,,36.6328001021008,137.213305084101,1916_02,,0,,
1917_01,,悪王寺,,36.6325854800001,137.219654751428,1917_01,,0,,
1918_01,,宮保,,36.6290645,137.220212595714,1918_01,,0,,
1919_01,,辰尾団地,,36.6258567133334,137.218120870953,1919_01,,0,,
1942_01,,富山南口,,36.6745419,137.21997971,1942_01,,0,,
1942_02,,富山南口,,36.6746026447739,137.219775890378,1942_02,,0,,
1946_01,,辰尾団地口,,36.62582632,137.220618115714,1946_01,,0,,
1946_02,,辰尾団地口,,36.6261367883518,137.220897402954,1946_02,,0,,
1947_01,,悪王寺西,,36.63228593,137.21767594,1947_01,,0,,
2103_01,,電鉄黒部駅前,,36.87390127,137.444084580477,2103_01,,0,,
2103_02,,電鉄黒部駅前,,36.8737011990838,137.444479281591,2103_02,,0,,
2104_01,,堀高,,36.87924917,137.44072239,2104_01,,0,,
2105_01,,中新（黒部）,,36.8852935533333,137.437776048571,2105_01,,0,,
2106_01,,中新口,,36.88584032,137.43463086,2106_01,,0,,
2107_01,,栃沢口,,36.88650535,137.43145809,2107_01,,0,,
2108_01,,清明中学校,,36.88706583,137.42876485,2108_01,,0,,
2109_01,,北方住宅,,36.88841065,137.42263773,2109_01,,0,,
2110_01,,生地口,,36.888529,137.41741023619,2110_01,,0,,
2111_01,,四十物町,,36.89046046,137.41612672,2111_01,,0,,
2112_01,,生地大町,,36.8926348299999,137.414607074286,2112_01,,0,,
2113_01,,宮川町,,36.89459472,137.41486766,2113_01,,0,,
2114_01,,吉田口,,36.8969958,137.418968438571,2114_01,,0,,
2115_01,,飯沢口,,36.8950770166667,137.420650491904,2115_01,,0,,
2116_01,,飯沢,,36.89543132,137.42458602,2116_01,,0,,
2117_01,,吉田科学館前,,36.90132387,137.42612424,2117_01,,0,,
2118_01,,生地駅,,36.9060161,137.4260139,2118_01,,0,,
2119_01,,岩井整形外科,,36.88242184,137.44043063,2119_01,,0,,
2120_01,,吉田,,36.90239529,137.42314455,2120_01,,0,,
2121_01,,魚の駅口,,36.8886554333334,137.419231909048,2121_01,,0,,
2122_01,,寺町商店街,,36.8730006433333,137.446434284762,2122_01,,0,,
2122_02,,寺町商店街,,36.8729092030271,137.446399927139,2122_02,,0,,
2123_02,,黒部市役所,,36.8707892402098,137.447065114975,2123_02,,0,,
2123_03,,黒部市役所,,36.8708750698483,137.446990013123,2123_03,,0,,
2124_01,,メルシー,,36.8704244966667,137.44590479,2124_01,,0,,
2124_02,,メルシー,,36.8703257571376,137.446029782295,2124_02,,0,,
2228_01,,黒部駅前,,36.8705502599999,137.434327277143,2228_01,,0,,
2230_01,,市民病院（黒部）,,36.87200603,137.440297595714,2230_01,,0,,
2230_02,,市民病院（黒部）,,36.8722585530892,137.440177394032,2230_02,,0,,
2230_03,,市民病院（黒部）,,36.8723427355596,137.44013428688,2230_03,,0,,
2241_01,,牧野,,36.86817968,137.44142565,2241_01,,0,,
2241_02,,牧野,,36.8684546352838,137.441250085831,2241_02,,0,,
2242_01,,牧野南口,,36.86473668,137.443659171429,2242_01,,0,,
2242_02,,牧野南口,,36.8645669071858,137.443581430426,2242_02,,0,,
2245_01,,桜井高校,,36.868954926871,137.449599098743,2245_01,,0,,
2246_01,,生地中区,,36.8879689,137.42470106,2246_01,,0,,
2249_01,,阿弥陀堂（生地）,,36.89542199,137.41272499,2249_01,,0,,
2250_01,,龍泉寺前,,36.89755732,137.41321246619,2250_01,,0,,
2251_01,,たなかや前,,36.8990679,137.41404966,2251_01,,0,,
2401_01,,山田,,36.84629788,137.44359019,2401_01,,0,,
2402_01,,中陣,,36.83965945,137.46080294,2402_01,,0,,
2403_01,,朴谷,,36.8391122,137.46780957,2403_01,,0,,
2404_01,,尾山,,36.8387017,137.47345174,2404_01,,0,,
2405_01,,東布施公民館,,36.83786244,137.47659438,2405_01,,0,,
2406_01,,阿弥陀堂（池尻）,,36.83728774,137.47867884,2406_01,,0,,
2407_01,,東布施支所前,,36.83619306,137.48125133,2407_01,,0,,
2408_01,,釈迦堂,,36.8334746,137.48864955,2408_01,,0,,
2409_01,,内生谷,,36.83193924,137.49430535,2409_01,,0,,
2410_01,,笠破,,36.82828238,137.49994342,2410_01,,0,,
2411_01,,田籾,,36.82382573,137.50769174,2411_01,,0,,
2412_01,,池尻,,36.81960209,137.50870888,2412_01,,0,,
2605_01,,三日市（桜井）,,36.87477125,137.446752351428,2605_01,,0,,
2605_02,,三日市（桜井）,,36.8747458849574,137.44694173336,2605_02,,0,,
2606_01,,植木,,36.88094383,137.44873006,2606_01,,0,,
2606_02,,植木,,36.8806332709502,137.448524236679,2606_02,,0,,
3002_01,,パッシブタウン黒部郵便局,,36.8788081500001,137.4464524,3002_01,,0,,
3002_02,,パッシブタウン黒部郵便局,,36.8784627671717,137.446637477406,3002_02,,0,,
3003_01,,コラーレ前,,36.88044074,137.45357167,3003_01,,0,,
3003_02,,コラーレ前,,36.8801908502131,137.453536355095,3003_02,,0,,
3004_01,,新堂,,36.87856879,137.461614951429,3004_01,,0,,
3004_02,,新堂,,36.8785135219945,137.461393475533,3004_02,,0,,
3005_01,,寺坪,,36.87713579,137.471715287143,3005_01,,0,,
3005_02,,寺坪,,36.8770373846623,137.471537590027,3005_02,,0,,
3006_01,,黒部宇奈月温泉駅,,36.87405931,137.48166735,3006_01,,0,,
3010_01,,YKKセンターパーク,,36.89841604,137.43004965,3010_01,,0,,
3011_01,,YKK黒部古御堂工場,,36.89544509,137.43143163,3011_01,,0,,
3012_01,,YKK黒部栃沢工場,,36.8928445,137.4379935,3012_01,,0,,
3013_01,,古御堂公民館,,36.89164313,137.440917281429,3013_01,,0,,
3013_02,,古御堂公民館,,36.8915804244957,137.441003557385,3013_02,,0,,
3014_01,,JAくろべ北部支店,,36.88713149,137.44359299,3014_01,,0,,
3015_01,,金屋（黒部）,,36.88553113,137.4468841,3015_01,,0,,
3016_01,,大阪屋ショップ・中央小学校（黒部）,,36.88226788,137.446580851905,3016_01,,0,,
3016_02,,大阪屋ショップ・中央小学校（黒部）,,36.8829503313546,137.446818351746,3016_02,,0,,
3018_01,,YKK黒部寮,,36.86814924,137.43862132,3018_01,,0,,
3019_01,,堀切新,,36.87670876,137.43861993,3019_01,,0,,
3020_01,,YKK堀切寮,,36.8769416633333,137.436054458571,3020_01,,0,,
3021_01,,堀切公民館,,36.88019934,137.43314995,3021_01,,0,,
3022_01,,YKK光志寮,,36.88320591,137.4307877,3022_01,,0,,
3023_01,,YKK体育館,,36.9012946666667,137.428621974286,3023_01,,0,,
3024_01,,YKK AP黒部荻生製造所,,36.89023409,137.48438578,3024_01,,0,,
3025_01,,黒部宇奈月温泉駅西口,,36.87504412,137.47946706,3025_01,,0,,
3102_01,,神通町,,36.7000161899999,137.207199913333,3102_01,,0,,
3102_02,,神通町,,36.700383713482,137.205897868449,3102_02,,0,,
3105_01,,安野屋町,,36.6924197966667,137.204157199047,3105_01,,0,,
3105_02,,安野屋町,,36.6925021478522,137.20501079701,3105_02,,0,,
3110_01,,検察庁前,,36.683497,137.208096,3110_01,,0,,
3110_02,,検察庁前,,36.684168,137.208037,3110_02,,0,,
3110_03,,検察庁前,,36.6838263333333,137.208560809523,3110_03,,0,,
3202_01,,丸の内,,36.69213862,137.208269424286,3202_01,,0,,
3202_02,,丸の内,,36.6921288721387,137.209683669406,3202_02,,0,,
3204_01,,五福末広町,,36.69533357,137.194811714286,3204_01,,0,,
3204_02,,五福末広町,,36.6953514876576,137.195181664009,3204_02,,0,,
3205_01,,富山球場前,,36.6978144033333,137.191802830476,3205_01,,0,,
3205_02,,富山球場前,,36.6980488612629,137.191774093873,3205_02,,0,,
3206_01,,富山大学前,,36.7008984533333,137.188766995238,3206_01,,0,,
3206_02,,富山大学前,,36.7004136202292,137.189465450998,3206_02,,0,,
3207_01,,呉羽山公園,,36.70741651,137.177584378571,3207_01,,0,,
3207_02,,呉羽山公園,,36.7066271281439,137.179261589148,3207_02,,0,,
3207_03,,呉羽山公園,,36.7076843672314,137.178313214802,3207_03,,0,,
3208_01,,追分口,,36.71050852,137.17010255,3208_01,,0,,
3208_02,,追分口,,36.7103597496556,137.170727499139,3208_02,,0,,
3209_01,,呉羽,,36.7142565699999,137.16199958,3209_01,,0,,
3209_02,,呉羽,,36.7129876692216,137.164616260997,3209_02,,0,,
3210_01,,寒江口,,36.71983029,137.149044594286,3210_01,,0,,
3210_02,,寒江口,,36.7197125111408,137.149966385885,3210_02,,0,,
3211_01,,富山短期大学前,,36.71954292,137.140799278572,3211_01,,0,,
3211_02,,富山短期大学前,,36.7198194098705,137.143452233718,3211_02,,0,,
3212_01,,老田口,,36.7188300866667,137.133091427618,3212_01,,0,,
3212_02,,老田口,,36.7189748778459,137.134142744254,3212_02,,0,,
3213_01,,鷲塚口,,36.7183349866667,137.122739103809,3213_01,,0,,
3213_02,,鷲塚口,,36.7182682112042,137.120547449161,3213_02,,0,,
3214_01,,手崎,,36.7186692700001,137.111386825714,3214_01,,0,,
3214_02,,手崎,,36.718721414072,137.110779311518,3214_02,,0,,
3215_01,,小杉東口,,36.71928773,137.104157007619,3215_01,,0,,
3215_02,,小杉東口,,36.7193430097934,137.103742599809,3215_02,,0,,
3216_01,,戸破,,36.72044664,137.09627975,3216_01,,0,,
3216_02,,戸破,,36.7204753895559,137.096396376216,3216_02,,0,,
3217_01,,小杉,,36.7215580533334,137.092614234285,3217_01,,0,,
3217_02,,小杉,,36.7213954681068,137.093377489297,3217_02,,0,,
3218_01,,小杉高校前,,36.72377665,137.085713852858,3218_01,,0,,
3218_02,,小杉高校前,,36.7236828600853,137.086033484612,3218_02,,0,,
3219_01,,新開発,,36.7275810400001,137.075757631428,3219_01,,0,,
3219_02,,新開発,,36.7274261640471,137.076196426332,3219_02,,0,,
3220_01,,赤井口,,36.7298508,137.070029431429,3220_01,,0,,
3220_02,,赤井口,,36.7293245298535,137.071406232518,3220_02,,0,,
3221_01,,大島（射水）,,36.73284687,137.064187008572,3221_01,,0,,
3221_02,,大島（射水）,,36.7332931199214,137.063670508254,3221_02,,0,,
3222_01,,中野口（富高）,,36.73951325,137.055291221429,3222_01,,0,,
3222_02,,中野口（富高）,,36.7390473526345,137.055976067058,3222_02,,0,,
3223_01,,大門口,,36.7421329333333,137.049562618571,3223_01,,0,,
3223_02,,大門口,,36.7419155680019,137.050514041219,3223_02,,0,,
3224_01,,高岡自動車学校前,,36.7443494233333,137.040181529524,3224_01,,0,,
3224_02,,高岡自動車学校前,,36.7441176649347,137.041280713763,3224_02,,0,,
3225_01,,野村,,36.74634873,137.035914012381,3225_01,,0,,
3225_02,,野村,,36.7457725638315,137.037113607919,3225_02,,0,,
3226_01,,城東一丁目,,36.7485059933333,137.031652788572,3226_01,,0,,
3226_02,,城東一丁目,,36.7480737940655,137.032576125744,3226_02,,0,,
3227_01,,中川,,36.75004095,137.024335435714,3227_01,,0,,
3227_02,,中川,,36.7497116321671,137.024812996717,3227_02,,0,,
3228_01,,広小路,,36.7515464199999,137.019631244285,3228_01,,0,,
3228_02,,広小路,,36.7529306193291,137.020873298275,3228_02,,0,,
3229_01,,急患医療センター前,,36.7497947,137.017836684286,3229_01,,0,,
3229_02,,急患医療センター前,,36.7508854043008,137.018846595884,3229_02,,0,,
3230_01,,片原町,,36.7469950900001,137.013872051429,3230_01,,0,,
3230_02,,片原町,,36.7468407155761,137.013482840547,3230_02,,0,,
3231_01,,末広町,,36.74425128,137.013760414286,3231_01,,0,,
3231_02,,末広町,,36.7442883582828,137.013586666614,3231_02,,0,,
3232_01,,高岡駅前,,36.7423737,137.015770937143,3232_01,,0,,
3232_02,,高岡駅前,,36.7421290355795,137.015618267812,3232_02,,0,,
3233_02,,呉羽高校前,,36.7146862994861,137.161183499729,3233_02,,0,,
3234_01,,本開発,,36.72580745,137.080300887143,3234_01,,0,,
3234_02,,本開発,,36.7256356315553,137.080753382056,3234_02,,0,,
3235_01,,小島（大島）,,36.7365928000001,137.059227835714,3235_01,,0,,
3235_02,,小島（大島）,,36.7358826465775,137.060211742352,3235_02,,0,,
3236_01,,高岡駅北,,36.74318392,137.014597044286,3236_01,,0,,
3238_01,,新高岡駅,,36.7265327299999,137.01119099,3238_01,,0,,
3305_01,,八町口,,36.73096939,137.183038687143,3305_01,,0,,
3305_02,,八町口,,36.7309505538681,137.183140800821,3305_02,,0,,
3305_03,,八町口,,36.7296062238127,137.183233987303,3305_03,,0,,
3322_01,,八町,,36.7356557000001,137.183049921428,3322_01,,0,,
3322_02,,八町,,36.7358338193444,137.183099712197,3322_02,,0,,
3323_01,,八町北口,,36.73884612,137.184577697143,3323_01,,0,,
3323_02,,八町北口,,36.7392689522247,137.185383903356,3323_02,,0,,
3324_01,,布目,,36.74225551,137.188332778572,3324_01,,0,,
3324_02,,布目,,36.7426248942184,137.188467863028,3324_02,,0,,
3325_01,,和合中学校前,,36.74704887,137.189861084286,3325_01,,0,,
3325_02,,和合中学校前,,36.7466497712571,137.189824943728,3325_02,,0,,
3326_01,,倉垣小学校前,,36.74873927,137.19011356,3326_01,,0,,
3326_02,,倉垣小学校前,,36.7491948734773,137.190478236722,3326_02,,0,,
3327_01,,鯰温泉口,,36.7511814233333,137.19184261,3327_01,,0,,
3327_02,,鯰温泉口,,36.7515117196204,137.192180158686,3327_02,,0,,
3328_01,,四方口,,36.75602121,137.192213844286,3328_01,,0,,
3328_02,,四方口,,36.755897586816,137.192885225503,3328_02,,0,,
3328_03,,四方口,,36.7562084914203,137.193247173901,3328_03,,0,,
3328_04,,四方口,,36.7556459528879,137.193028282366,3328_04,,0,,
3329_01,,田町（四方）,,36.7565024,137.195657487143,3329_01,,0,,
3329_02,,田町（四方）,,36.7566496438328,137.195899570738,3329_02,,0,,
3330_01,,今市,,36.7449171666666,137.199945733809,3330_01,,0,,
3330_02,,今市,,36.7456072813425,137.200977802277,3330_02,,0,,
3331_01,,八幡（四方）,,36.74043069,137.197831197143,3331_01,,0,,
3331_02,,八幡（四方）,,36.7404488999398,137.197909355164,3331_02,,0,,
3332_01,,寺島,,36.73468535,137.19782907,3332_01,,0,,
3332_02,,寺島,,36.7349677401138,137.197903990746,3332_02,,0,,
3333_01,,追分,,36.7277299733334,137.19975981619,3333_01,,0,,
3333_02,,追分,,36.7276464222673,137.19983779706,3333_02,,0,,
3334_01,,住吉内山邸口,,36.72453277,137.20125525,3334_01,,0,,
3334_02,,住吉内山邸口,,36.7246890503959,137.201255003995,3334_02,,0,,
3335_01,,百塚,,36.72130444,137.201715971905,3335_01,,0,,
3335_02,,百塚,,36.7211212982662,137.201791794347,3335_02,,0,,
3337_01,,石坂新,,36.71660421,137.20036931,3337_01,,0,,
3337_02,,石坂新,,36.7156841505892,137.200128824757,3337_02,,0,,
3401_01,,越前町,,36.6890199566667,137.210644947619,3401_01,,0,,
3401_02,,越前町,,36.6892746373801,137.210220269931,3401_02,,0,,
3402_01,,旅籠町,,36.6887437866667,137.208883341905,3402_01,,0,,
3402_02,,旅籠町,,36.6883177091959,137.208693156833,3402_02,,0,,
3403_01,,相生町,,36.68639963,137.208536898571,3403_01,,0,,
3403_02,,相生町,,36.6864709397831,137.208410675332,3403_02,,0,,
3404_01,,西田地方二丁目,,36.681466,137.207828,3404_01,,0,,
3404_02,,西田地方二丁目,,36.681561,137.207678,3404_02,,0,,
3405_01,,西田地方,,36.6792072566667,137.206619406667,3405_01,,0,,
3405_02,,西田地方,,36.6793219573072,137.206642279167,3405_02,,0,,
3406_01,,新根塚,,36.6793040933333,137.203946998095,3406_01,,0,,
3406_02,,新根塚,,36.6793876614124,137.203875756656,3406_02,,0,,
3407_01,,新布瀬,,36.6795033433333,137.199594948095,3407_01,,0,,
3407_02,,新布瀬,,36.6796016229383,137.199512494741,3407_02,,0,,
3408_01,,有沢,,36.67992987,137.192565012381,3408_01,,0,,
3408_02,,有沢,,36.6796037112857,137.19230120697,3408_02,,0,,
3409_01,,鵜坂,,36.67215901,137.188762419047,3409_01,,0,,
3410_01,,塚原,,36.66667594,137.187784187143,3410_01,,0,,
3410_02,,塚原,,36.6666504351989,137.187609672546,3410_02,,0,,
3411_01,,轡田,,36.65708273,137.184421342857,3411_01,,0,,
3411_02,,轡田,,36.6571016526111,137.184353470802,3411_02,,0,,
3412_01,,添島,,36.64996412,137.18168315,3412_01,,0,,
3412_02,,添島,,36.6500221372693,137.181563973427,3412_02,,0,,
3413_01,,土渕,,36.63918232,137.178250818571,3413_01,,0,,
3413_02,,土渕,,36.6391928776666,137.178055644035,3413_02,,0,,
3414_01,,萩の島口,,36.6342428499999,137.173281438572,3414_01,,0,,
3414_02,,萩の島口,,36.6340585532757,137.173245860269,3414_02,,0,,
3415_01,,萩の島,,36.6320321433333,137.171327058571,3415_01,,0,,
3415_02,,萩の島,,36.6323866683465,137.171721471369,3415_02,,0,,
3416_01,,宮野小学校前,,36.62970374,137.170292301429,3416_01,,0,,
3416_02,,宮野小学校前,,36.6300109123042,137.170153856277,3416_02,,0,,
3417_01,,野下,,36.6271948433333,137.170609334762,3417_01,,0,,
3417_02,,野下,,36.6260157960659,137.169767618179,3417_02,,0,,
3418_01,,広田,,36.62299086,137.168025975714,3418_01,,0,,
3418_02,,広田,,36.6227911408192,137.167809605598,3418_02,,0,,
3419_01,,広田南口,,36.61859597,137.165807364286,3419_01,,0,,
3419_02,,広田南口,,36.6191099569299,137.165969610214,3419_02,,0,,
3420_01,,杉田,,36.61225435,137.161315548571,3420_01,,0,,
3420_02,,杉田,,36.6122982270183,137.161206007004,3420_02,,0,,
3421_01,,大杉,,36.6095284833333,137.159361778571,3421_01,,0,,
3421_02,,大杉,,36.6093184424855,137.158947587013,3421_02,,0,,
3422_01,,黒田,,36.60450629,137.155959828571,3422_01,,0,,
3422_02,,黒田,,36.6054600559405,137.156496047974,3422_02,,0,,
3423_01,,井田,,36.5983330133333,137.151542815238,3423_01,,0,,
3423_02,,井田,,36.5981475353597,137.151389122009,3423_02,,0,,
3424_01,,中井田,,36.5957933033333,137.150349575715,3424_01,,0,,
3424_02,,中井田,,36.5955461852071,137.150058746338,3424_02,,0,,
3424_03,,中井田,,36.594624527234,137.149683237076,3424_03,,0,,
3424_04,,中井田,,36.5946762178463,137.149801254272,3424_04,,0,,
3425_01,,井田新,,36.59165342,137.14631969,3425_01,,0,,
3425_02,,井田新,,36.5917646662945,137.146330475807,3425_02,,0,,
3426_01,,上井田新,,36.58978007,137.144883817619,3426_01,,0,,
3426_02,,上井田新,,36.5900030398584,137.14480803069,3426_02,,0,,
3427_01,,久婦須橋詰,,36.58497282,137.14338042,3427_01,,0,,
3428_01,,眼鏡橋詰,,36.5829558266667,137.141062334285,3428_01,,0,,
3428_02,,眼鏡橋詰,,36.5830982780606,137.141282558441,3428_02,,0,,
3429_01,,聞名寺下,,36.58069569,137.138855394285,3429_01,,0,,
3430_01,,今町,,36.5793404366667,137.137580488095,3430_01,,0,,
3431_01,,新今町,,36.57952722,137.138114102381,3431_01,,0,,
3432_01,,東町（八尾）,,36.57782147,137.13669129,3432_01,,0,,
3433_01,,八尾鏡町,,36.5768126,137.13456073,3433_01,,0,,
3434_01,,八尾横町,,36.5780628933333,137.135667875714,3434_01,,0,,
3435_01,,塩,,36.59768445,137.19101487,3435_01,,0,,
3436_01,,八尾高校前,,36.5856824,137.130622944286,3436_01,,0,,
3437_01,,大沢野行政センター前,,36.5795121694221,137.205214059585,3437_01,,0,,
3440_01,,笹倉一区前,,36.6609726733333,137.152273601905,3440_01,,0,,
3440_02,,笹倉一区前,,36.6610451587192,137.152175360107,3440_02,,0,,
3441_01,,神明,,36.6772537800001,137.189561012857,3441_01,,0,,
3441_02,,神明,,36.6772400195988,137.189456665284,3441_02,,0,,
3442_01,,分田,,36.6743726899999,137.182590228571,3442_01,,0,,
3442_02,,分田,,36.6748174099503,137.183611433754,3442_02,,0,,
3443_01,,田島,,36.67276911,137.179122891429,3443_01,,0,,
3443_02,,田島,,36.6727801110796,137.17905027698,3443_02,,0,,
3444_01,,鵜坂小学校前,,36.67039108,137.176128035714,3444_01,,0,,
3444_02,,鵜坂小学校前,,36.6701910653433,137.175818683036,3444_02,,0,,
3444_03,,鵜坂小学校前,,36.6698130204539,137.175995707512,3444_03,,0,,
3445_01,,下轡田,,36.6676613499999,137.17276263,3445_01,,0,,
3445_02,,下轡田,,36.6678563989775,137.172930293465,3445_02,,0,,
3446_01,,宮ヶ島,,36.6654240699999,137.169342001428,3446_01,,0,,
3446_02,,宮ヶ島,,36.6654767593047,137.169337883382,3446_02,,0,,
3447_01,,速星一区,,36.66289086,137.16524307,3447_01,,0,,
3447_02,,速星一区,,36.6627538556506,137.164987105577,3447_02,,0,,
3448_01,,小泉定,,36.61518935,137.16384346,3448_01,,0,,
3448_02,,小泉定,,36.6160701559513,137.164360284805,3448_02,,0,,
3451_01,,速星,,36.6618599533333,137.160024368572,3451_01,,0,,
3451_02,,速星,,36.6616503325777,137.161062344274,3451_02,,0,,
3451_03,,速星,,36.6620727694098,137.161349368119,3451_03,,0,,
3451_04,,速星,,36.6625861010087,137.160898410434,3451_04,,0,,
3452_01,,日産化学前,,36.66143137,137.156382607143,3452_01,,0,,
3452_02,,日産化学前,,36.661578211025,137.15755995406,3452_02,,0,,
3453_01,,落合橋詰,,36.66126764,137.148235934286,3453_01,,0,,
3453_02,,落合橋詰,,36.6614250182055,137.148320596855,3453_02,,0,,
3454_01,,下邑口,,36.6577134799999,137.137373565714,3454_01,,0,,
3454_02,,下邑口,,36.6578987905989,137.138172948619,3454_02,,0,,
3455_01,,羽根,,36.65686304,137.131243925714,3455_01,,0,,
3455_02,,羽根,,36.6569932896857,137.130943459157,3455_02,,0,,
3456_01,,国立富山病院口,,36.65088408,137.124772977143,3456_01,,0,,
3456_02,,国立富山病院口,,36.6510661529708,137.125047576832,3456_02,,0,,
3457_01,,長沢,,36.64991532,137.12368244,3457_01,,0,,
3457_02,,長沢,,36.6499550516251,137.123581845344,3457_02,,0,,
3460_01,,千里駅前,,36.6341146999999,137.131350528571,3460_01,,0,,
3460_02,,千里駅前,,36.6340746994185,137.131261825562,3460_02,,0,,
3464_01,,保内小学校前,,36.61108746,137.138031408572,3464_01,,0,,
3464_02,,保内小学校前,,36.6110882425316,137.137972712517,3464_02,,0,,
3470_01,,速星二区,,36.65830304,137.161740411429,3470_01,,0,,
3470_02,,速星二区,,36.6579879181105,137.161715759604,3470_02,,0,,
3470_03,,速星二区,,36.6584712514439,137.159887188175,3470_03,,0,,
3471_01,,笹倉一区,,36.6600537652337,137.152762413025,3471_01,,0,,
3471_02,,笹倉一区,,36.6601212514439,137.152833854842,3471_02,,0,,
3472_01,,ねむの木団地,,36.63862182,137.17468583,3472_01,,0,,
3473_01,,黒田中部,,36.60132603,137.152864741428,3473_01,,0,,
3473_02,,黒田中部,,36.6015842483303,137.15291261673,3473_02,,0,,
3474_01,,上井田,,36.5936137,137.148397147143,3474_01,,0,,
3474_02,,上井田,,36.5936123947039,137.148288488388,3474_02,,0,,
3475_01,,黒田東部,,36.60029325,137.15855438,3475_01,,0,,
3477_01,,蔵島,,36.64364017,137.1715014,3477_01,,0,,
3478_01,,持田,,36.6383924,137.17181386,3478_01,,0,,
3479_01,,蛍川口,,36.64877344,137.1663258,3479_01,,0,,
3480_01,,蛍川,,36.65166084,137.1680322,3480_01,,0,,
3481_01,,板倉,,36.65092751,137.16951106,3481_01,,0,,
3482_01,,八尾駅,,36.59218276,137.13825963,3482_01,,0,,
3483_01,,速星駅前,,36.66397543,137.16091094,3483_01,,0,,
3503_01,,黒瀬,,36.66608,137.20167,3503_01,,0,,
3503_02,,黒瀬,,36.66605,137.201434,3503_02,,0,,
3504_01,,黒瀬橋詰,,36.663296,137.201144,3504_01,,0,,
3504_02,,黒瀬橋詰,,36.662965,137.200785,3504_02,,0,,
3505_01,,萩原,,36.660409,137.197362,3505_01,,0,,
3505_02,,萩原,,36.660344,137.197207,3505_02,,0,,
3506_01,,西荒屋北口,,36.654134,137.195383,3506_01,,0,,
3506_02,,西荒屋北口,,36.655537,137.195431,3506_02,,0,,
3507_01,,西荒屋,,36.650536,137.194836,3507_01,,0,,
3507_02,,西荒屋,,36.650515,137.19468,3507_02,,0,,
3508_01,,秋ヶ島口,,36.647674,137.19439,3508_01,,0,,
3508_02,,秋ヶ島口,,36.647816,137.194262,3508_02,,0,,
3509_01,,富山空港,,36.643545,137.18967,3509_01,,0,,
3511_01,,中の口,,36.63978,137.193802571429,3511_01,,0,,
3511_02,,中の口,,36.639788,137.193728428571,3511_02,,0,,
3512_01,,中坪口,,36.637504,137.193797285714,3512_01,,0,,
3512_02,,中坪口,,36.637409,137.193722714286,3512_02,,0,,
3513_01,,新保,,36.633687,137.194050428571,3513_01,,0,,
3513_02,,新保,,36.633638,137.193934,3513_02,,0,,
3514_01,,吉倉,,36.622289,137.193068428571,3514_01,,0,,
3514_02,,吉倉,,36.623512,137.193103,3514_02,,0,,
3515_01,,押上,,36.61664337,137.19201358,3515_01,,0,,
3515_02,,押上,,36.6166557376921,137.191890478134,3515_02,,0,,
3516_01,,福居,,36.6129354833333,137.191028742857,3516_01,,0,,
3516_02,,福居,,36.6136459802045,137.191718816757,3516_02,,0,,
3517_01,,神通口,,36.6132598833333,137.187062247142,3517_01,,0,,
3517_02,,神通口,,36.6132190031448,137.188685393455,3517_02,,0,,
3518_01,,成子,,36.61130919,137.179827657143,3518_01,,0,,
3519_01,,杉田東口,,36.61018529,137.177171841428,3519_01,,0,,
3524_01,,薄島,,36.6026479614332,137.175459265709,3524_01,,0,,
3524_02,,薄島,,36.6026436549438,137.175351977348,3524_02,,0,,
3524_03,,薄島,,36.59714728,137.17282008,3524_03,,0,,
3525_01,,滅鬼,,36.59968847,137.169870825714,3525_01,,0,,
3526_01,,杉原農協前,,36.60109676,137.162823839999,3526_01,,0,,
3527_01,,速星中学校前,,36.65570525,137.163030228095,3527_01,,0,,
3527_02,,速星中学校前,,36.655694408326,137.162970900536,3527_02,,0,,
3528_01,,砂子田,,36.6499442133333,137.164989261429,3528_01,,0,,
3528_02,,砂子田,,36.649923142678,137.164875268936,3528_02,,0,,
3529_01,,中名,,36.6465401866667,137.166229773333,3529_01,,0,,
3529_02,,中名,,36.6465015047037,137.166141271591,3529_02,,0,,
3530_01,,熊野,,36.64181032,137.167406147143,3530_01,,0,,
3530_02,,熊野,,36.6414871205321,137.167358994484,3530_02,,0,,
3531_01,,堀,,36.63713211,137.16875703,3531_01,,0,,
3531_02,,堀,,36.6366618146192,137.168925404549,3531_02,,0,,
3532_01,,富山産業展示館口,,36.642311,137.193825857143,3532_01,,0,,
3532_02,,富山産業展示館口,,36.642139,137.193721142857,3532_02,,0,,
3533_01,,総合体育センター前,,36.644885,137.191445,3533_01,,0,,
3533_02,,総合体育センター前,,36.645165,137.191343,3533_02,,0,,
3540_01,,総合運動公園,,36.623378,137.194316941428,3540_01,,0,,
3540_02,,総合運動公園,,36.6233981906185,137.194186449051,3540_02,,0,,
3541_01,,中央植物園口,,36.6650911566667,137.177531907143,3541_01,,0,,
3541_02,,中央植物園口,,36.6650712395254,137.177460193634,3541_02,,0,,
3542_01,,ファボーレ前,,36.6609999433333,137.171796598571,3542_01,,0,,
3542_02,,ファボーレ前,,36.6611739754092,137.171774102329,3542_02,,0,,
3543_01,,富山西高校前,,36.65908017,137.164122552857,3543_01,,0,,
3543_02,,富山西高校前,,36.6591328580208,137.163743376732,3543_02,,0,,
3544_01,,二口,,36.669906,137.203714,3544_01,,0,,
3544_02,,二口,,36.670009,137.204626,3544_02,,0,,
3550_01,,堀中央,,36.63474693,137.170208924286,3550_01,,0,,
3550_02,,堀中央,,36.6346413915644,137.17022114266,3550_02,,0,,
3601_01,,五福九区,,36.69893472,137.18383369,3601_01,,0,,
3601_02,,五福九区,,36.6990170080299,137.183500766416,3601_02,,0,,
3602_01,,西富山,,36.6979689166667,137.178785384762,3602_01,,0,,
3602_02,,西富山,,36.6979615551892,137.178513022996,3602_02,,0,,
3603_01,,寺町,,36.6966330500001,137.175533524286,3603_01,,0,,
3603_02,,寺町,,36.6966672365255,137.175370411846,3603_02,,0,,
3604_01,,金屋口,,36.69291606,137.168894805714,3604_01,,0,,
3604_02,,金屋口,,36.6934644007795,137.16958923721,3604_02,,0,,
3605_01,,金屋,,36.6913183033333,137.166502119047,3605_01,,0,,
3605_02,,金屋,,36.6916662211556,137.166880443526,3605_02,,0,,
3606_01,,安田,,36.6806724,137.15641729,3606_01,,0,,
3606_02,,安田,,36.6808525991853,137.156547905114,3606_02,,0,,
3607_01,,小泉口,,36.6770269833333,137.152967789048,3607_01,,0,,
3607_02,,小泉口,,36.677524437213,137.153479145175,3607_02,,0,,
3608_01,,朝日,,36.6746893733333,137.150794024762,3608_01,,0,,
3608_02,,朝日,,36.6748953672228,137.150885390469,3608_02,,0,,
3699_01,,国立富山病院,,36.6546652333334,137.119031032857,3699_01,,0,,
3703_01,,蓮花寺,,36.64362355,137.114549714761,3703_01,,0,,
3704_01,,下瀬,,36.6382658633333,137.104659097143,3704_01,,0,,
3705_01,,外輪野,,36.63282986,137.096644924286,3705_01,,0,,
3706_01,,音川,,36.6301981199999,137.09394708,3706_01,,0,,
3707_01,,馬頭観音前,,36.62663335,137.091438172857,3707_01,,0,,
3708_01,,三の瀬,,36.62131511,137.090854334286,3708_01,,0,,
3709_01,,道島,,36.60678985,137.086166361429,3709_01,,0,,
3710_01,,皆杓,,36.6017802700001,137.08487035,3710_01,,0,,
3711_01,,中の瀬,,36.59770195,137.084328722857,3711_01,,0,,
3712_01,,小島（山田）,,36.5945322499999,137.080846632857,3712_01,,0,,
3713_01,,山田農協前,,36.59099354,137.081851338571,3713_01,,0,,
3714_01,,中村,,36.58721305,137.081151027143,3714_01,,0,,
3715_01,,山田小学校前,,36.58470227,137.08015397,3715_01,,0,,
3717_01,,山田中核型地区センター前,,36.5798958366666,137.080679011904,3717_01,,0,,
3801_01,,新富町,,36.6987508699494,137.210792238857,3801_01,,0,,
3801_02,,新富町,,36.6987178662573,137.21067446106,3801_02,,0,,
3802_01,,畑中,,36.7031854433334,137.198636424286,3802_01,,0,,
3802_02,,畑中,,36.7031060749411,137.19854842526,3802_02,,0,,
3803_01,,附属学園前,,36.7046224833333,137.194973157143,3803_01,,0,,
3803_02,,附属学園前,,36.7048723812478,137.194258171267,3803_02,,0,,
3804_01,,安養坊,,36.70690056,137.190541164286,3804_01,,0,,
3804_02,,安養坊,,36.706891071112,137.190476872315,3804_02,,0,,
3805_01,,新桜谷町,,36.7109180633334,137.192068404762,3805_01,,0,,
3807_01,,富山市民俗民芸村,,36.7088609999999,137.190787461904,3807_01,,0,,
3812_01,,田刈屋南口,,36.70493801,137.197970361428,3812_01,,0,,
3812_02,,田刈屋南口,,36.7048622319942,137.198066492688,3812_02,,0,,
3813_01,,田刈屋,,36.70907644,137.20020948,3813_01,,0,,
3813_02,,田刈屋,,36.7091524241726,137.200368889495,3813_02,,0,,
3814_01,,石坂,,36.7102776999998,137.199280294286,3814_01,,0,,
3814_02,,石坂,,36.7108839136055,137.199201907423,3814_02,,0,,
3820_01,,御廟口,,36.71501269,137.19611332,3820_01,,0,,
3820_02,,御廟口,,36.7147078822913,137.196521839273,3820_02,,0,,
3821_01,,市営墓地前,,36.71546245,137.192423878571,3821_01,,0,,
3821_02,,市営墓地前,,36.715537632988,137.1925207202,3821_02,,0,,
3822_01,,長岡公民館前,,36.71704209,137.18998005,3822_01,,0,,
3822_02,,長岡公民館前,,36.7170257566293,137.190134372293,3822_02,,0,,
3823_01,,北代新,,36.7183609099999,137.186576378572,3823_01,,0,,
3823_02,,北代新,,36.7184177035549,137.186554864338,3823_02,,0,,
3825_01,,県立図書館前,,36.7109859399999,137.179953807142,3825_01,,0,,
3825_02,,県立図書館前,,36.7102978531028,137.179696533599,3825_02,,0,,
3826_01,,谷野呉山病院前,,36.7140563699999,137.181487718571,3826_01,,0,,
3826_02,,谷野呉山病院前,,36.7147244661936,137.18187954155,3826_02,,0,,
3827_01,,北代,,36.7186726700001,137.183261857143,3827_01,,0,,
3827_02,,北代,,36.7181660099554,137.183351025026,3827_02,,0,,
3916_01,,北野,,36.68572608,137.119168812857,3916_01,,0,,
3917_02,,椎土,,36.6882729769588,137.117925065542,3917_02,,0,,
3918_02,,土代,,36.6930007222616,137.11655702386,3918_02,,0,,
3919_02,,星丸,,36.6995241587169,137.112784438515,3919_02,,0,,
3920_01,,黒河,,36.70207102,137.110315275714,3920_01,,0,,
3920_02,,黒河,,36.7020713311802,137.110660244719,3920_02,,0,,
3921_01,,黒河西口,,36.70295967,137.106072565714,3921_01,,0,,
3921_02,,黒河西口,,36.7033731899288,137.105810460292,3921_02,,0,,
3922_01,,歌の森小学校前,,36.7078767869453,137.105541074044,3922_01,,0,,
3922_02,,歌の森小学校前,,36.7082036794043,137.105424106451,3922_02,,0,,
3944_01,,新安田,,36.6829172266666,137.157822089048,3944_01,,0,,
3944_02,,新安田,,36.682931055168,137.158586931574,3944_02,,0,,
3944_03,,新安田,,36.6823314467526,137.15801254534,3944_03,,0,,
3945_01,,ファミリーパーク前,,36.6909550600001,137.147440027143,3945_01,,0,,
3945_02,,ファミリーパーク前,,36.6909669846404,137.147711698696,3945_02,,0,,
3946_01,,富山大学附属病院,,36.68062091,137.140665275714,3946_01,,0,,
3948_01,,附属病院南口,,36.67735822,137.140011764286,3948_01,,0,,
3949_01,,友坂,,36.6771946066666,137.145930637143,3949_01,,0,,
3949_02,,友坂,,36.6772420233527,137.145991709246,3949_02,,0,,
3951_01,,杉谷口,,36.6864916266666,137.143386878571,3951_01,,0,,
3951_02,,杉谷口,,36.6860705783917,137.143333865335,3951_02,,0,,
3952_01,,古沢南部,,36.68884119,137.144576087619,3952_01,,0,,
3952_02,,古沢南部,,36.6886813915775,137.144465092868,3952_02,,0,,
3960_01,,イノベーションパーク,,36.677901747141,137.17267781529,3960_01,,0,,
3960_02,,イノベーションパーク,,36.6781297835931,137.172594666481,3960_02,,0,,
3962_01,,上田島,,36.6726355705659,137.172342538834,3962_01,,0,,
3962_02,,上田島,,36.6726183600004,137.172331809998,3962_02,,0,,
4028_01,,太閤山東住宅前,,36.6942831555189,137.113763093948,4028_01,,0,,
4101_01,,上新町,,36.72448513,137.088032391428,4101_01,,0,,
4102_02,,今開発,,36.7299564102807,137.087629517027,4102_02,,0,,
4103_01,,今井,,36.7392576200001,137.090304735714,4103_01,,0,,
4104_01,,殿村,,36.74374904,137.0916376,4104_01,,0,,
4104_02,,殿村,,36.7439293930607,137.091745190343,4104_02,,0,,
4105_01,,作道支所前,,36.7469861100001,137.090863421428,4105_01,,0,,
4105_02,,作道支所前,,36.7468188166443,137.090872577903,4105_02,,0,,
4106_01,,作道,,36.75178867,137.091123342857,4106_01,,0,,
4106_02,,作道,,36.7518467107346,137.091129447615,4106_02,,0,,
4107_01,,小杉駅前,,36.72133066,137.09273639,4107_01,,0,,
4107_02,,小杉駅前,,36.7213886453905,137.092836009089,4107_02,,0,,
4215_01,,富山短期大学,,36.72150068,137.140624618571,4215_01,,0,,
4217_01,,婦中保健福祉センター前,,36.6584609099999,137.140357278571,4217_01,,0,,
4217_02,,婦中保健福祉センター前,,36.6585109506829,137.140206358733,4217_02,,0,,
4218_01,,国際大付属高校,,36.72154509,137.140635345714,4218_01,,0,,
4222_01,,芳野,,36.7354795905165,137.02068309457,4222_01,,0,,
4222_02,,芳野,,36.7354879238498,137.020511665998,4222_02,,0,,
4223_01,,大野,,36.7378107533333,137.028752149047,4223_01,,0,,
4223_02,,大野,,36.7380640866667,137.02817500619,4223_02,,0,,
4224_01,,井口本江,,36.73719123,137.031688668571,4224_01,,0,,
4224_02,,井口本江,,36.7371545633333,137.031719144762,4224_02,,0,,
4225_01,,蓮花寺（高岡）,,36.73681372,137.034890401428,4225_01,,0,,
4225_02,,蓮花寺（高岡）,,36.73678872,137.034833258571,4225_02,,0,,
4226_01,,大門総合会館前,,36.73315425,137.049675144286,4226_01,,0,,
4226_02,,大門総合会館前,,36.73328425,137.049595144286,4226_02,,0,,
4227_01,,大門中学校,,36.7295878033333,137.057054541904,4227_01,,0,,
4227_02,,大門中学校,,36.72962947,137.057246922857,4227_02,,0,,
4228_01,,橋下条,,36.7151117496667,137.08751686227,4228_01,,0,,
4228_02,,橋下条,,36.7151334163334,137.087574005127,4228_02,,0,,
4361_01,,環水公園,,36.7111333733333,137.213550624762,4361_01,,0,,
4361_02,,環水公園,,36.7110838892708,137.213776852591,4361_02,,0,,
4365_02,,緑町一丁目,,36.6920287762469,137.228786742986,4365_02,,0,,
4366_01,,栄町,,36.6917367333333,137.233961617143,4366_01,,0,,
4368_02,,五福新町,,36.7027183571793,137.197007316796,4368_02,,0,,
4369_02,,水墨美術館前,,36.6989727027132,137.195514258586,4369_02,,0,,
4370_02,,五福,,36.6971400787584,137.194820150114,4370_02,,0,,
4390_01,,ANAクラウンプラザホテル前,,36.691838,137.211605,4390_01,,0,,
4417_01,,草島小学校口,,36.74702494,137.20788545,4417_01,,0,,
4417_02,,草島小学校口,,36.7466131190089,137.208293468998,4417_02,,0,,
4418_01,,岩瀬スポーツ公園,,36.7455614333333,137.23832622,4418_01,,0,,
4418_02,,岩瀬スポーツ公園,,36.745812715408,137.238324997003,4418_02,,0,,
4419_01,,萩浦,,36.74606949,137.232161438571,4419_01,,0,,
4419_02,,萩浦,,36.746287715408,137.23217261605,4419_02,,0,,
5544_01,,城端行政センター前,,36.51210899,136.90108399,5544_01,,0,,
5545_01,,城端駅前,,36.5221934100001,136.901260958571,5545_01,,0,,
5546_01,,福光駅前,,36.5580794033333,136.877546070476,5546_01,,0,,
5547_01,,福野町,,36.5919863,136.92018656,5547_01,,0,,
5548_01,,砺波駅南,,36.63615686,136.95392897,5548_01,,0,,
5549_01,,東野尻,,36.61918333,136.94105972,5549_01,,0,,
5550_01,,高儀,,36.61341425,136.93718496,5550_01,,0,,
3239_02,,富山短期大学口,,36.7194507121416,137.138927578926,3239_02,,0,,
3548_01,,富山県広域消防防災センター,,36.6203930058525,137.199068069458,3548_01,,0,,
4041_01,,中島,,36.7236043729097,137.224345207214,4041_01,,0,,
4041_02,,中島,,36.7237333643601,137.22457587719,4041_02,,0,,
5552_01,,東石黒,,36.5759731904607,136.897051334381,5552_01,,0,,
5552_02,,東石黒,,36.5765590613288,136.898295879364,5552_02,,0,,
4044_01,,東富山駅前,,36.7414548116324,137.247422933578,4044_01,,0,,
5201_01,,蓮町,,36.7425361146172,137.227668230389,5201_01,,0,,
5202_01,,昭和町,,36.7448734700647,137.227515109362,5202_01,,0,,
5202_02,,昭和町,,36.7446493930607,137.227306715834,5202_02,,0,,
4052_01,,国立高専　射水,,36.7593784549944,137.159221172333,4052_01,,0,,
5203_01,,千原崎,,36.7461477310604,137.226261943981,5203_01,,0,,
5203_02,,千原崎,,36.7459078184657,137.22408048433,5203_02,,0,,
5204_01,,草島,,36.7460194055532,137.212139256051,5204_01,,0,,
5204_02,,草島,,36.7459050258911,137.211452295739,5204_02,,0,,
5205_01,,草島小学校口,,36.7468808758805,137.208176659466,5205_01,,0,,
5205_02,,草島小学校口,,36.7460195031269,137.210233172057,5205_02,,0,,
5206_01,,荒屋南部,,36.7495540749121,137.201564156778,5206_01,,0,,
5206_02,,荒屋南部,,36.7500817202494,137.20127611114,5206_02,,0,,
5207_01,,荒屋,,36.7530321838538,137.199518173963,5207_01,,0,,
5207_02,,荒屋,,36.7534876269787,137.199080081362,5207_02,,0,,
5208_01,,南町,,36.7562753622437,137.197319036375,5208_01,,0,,
5208_02,,南町,,36.7562049382911,137.197294782399,5208_02,,0,,
5209_02,,ちてつ四方,,36.7559326610873,137.196067610441,5209_02,,0,,
5210_01,,四方神明町,,36.757912179224,137.194301434501,5210_01,,0,,
5211_01,,四方町,,36.7584815164067,137.195743102501,5211_01,,0,,
5301_01,,岩瀬浜駅前,,36.7615102728262,137.233904483741,5301_01,,0,,
5302_01,,岩瀬浜,,36.7620750274125,137.236291769464,5302_01,,0,,
5302_02,,岩瀬浜,,36.7621352728262,137.236456864693,5302_02,,0,,
5303_01,,パークゴルフ場前,,36.762609977476,137.240243438812,5303_01,,0,,
5303_02,,パークゴルフ場前,,36.7625503349238,137.23997210944,5303_02,,0,,
5304_01,,海岸通り新町,,36.7629443581844,137.245238057909,5304_01,,0,,
5304_02,,海岸通り新町,,36.7630048776029,137.245437167685,5304_02,,0,,
5305_01,,大村松籟荘前,,36.7624786018905,137.250819579115,5305_01,,0,,
5305_02,,大村松籟荘前,,36.7625214986021,137.250927188873,5305_02,,0,,
5306_01,,海岸通り,,36.7615354347969,137.255012319827,5306_01,,0,,
5306_02,,海岸通り,,36.7618632901101,137.25419011087,5306_02,,0,,
5307_01,,田畑新町,,36.7607808803584,137.25810046802,5307_01,,0,,
5307_02,,田畑新町,,36.7608306509732,137.258157722005,5307_02,,0,,
5308_01,,日方江,,36.7600142006994,137.260699015681,5308_01,,0,,
5308_02,,日方江,,36.7600291934087,137.260602764366,5308_02,,0,,
5309_01,,日方江東,,36.7597755720003,137.262963888713,5309_01,,0,,
5309_02,,日方江東,,36.7598791934087,137.262330188969,5309_02,,0,,
5310_01,,古志町,,36.7585727198485,137.274065009163,5310_01,,0,,
5310_02,,古志町,,36.758654396239,137.274007208887,5310_02,,0,,
5311_01,,浜黒崎小学校,,36.7576525199032,137.278618383553,5311_01,,0,,
5311_02,,浜黒崎小学校,,36.7577086151023,137.278772633544,5311_02,,0,,
5312_01,,浜黒崎浜通り,,36.7569151286173,137.284647256597,5312_01,,0,,
5312_02,,浜黒崎浜通り,,36.7570037086897,137.285384752619,5312_02,,0,,
5313_01,,浜黒崎キャンプ場,,36.7569042333636,137.285856849216,5313_01,,0,,
5313_02,,浜黒崎キャンプ場,,36.7569428384867,137.286356361128,5313_02,,0,,
5314_01,,横越,,36.7569044358137,137.289219521205,5314_01,,0,,
5314_02,,横越,,36.7569439908992,137.288957873045,5314_02,,0,,
5315_01,,水橋山王町,,36.7549040236378,137.297147158832,5315_01,,0,,
5315_02,,水橋山王町,,36.7548927325459,137.298087461708,5315_02,,0,,
5316_01,,水橋漁港前,,36.7552595378919,137.301866182655,5316_01,,0,,
5316_02,,水橋漁港前,,36.7553526888944,137.3018346972,5316_02,,0,,
3400_01,,富山まちなか病院前,,36.6897382451203,137.204560651507,3400_01,,0,,
3400_02,,富山まちなか病院前,,36.6902222777457,137.203426201739,3400_02,,0,,
2252_01,,道の駅KOKOくろべ,,36.8784752600111,137.428089181999,2252_01,,0,,
3027_01,,I-TOWN,,36.9036919266778,137.425955848666,3027_01,,0,,
3026_01,,黒部市役所前,,36.8715116666667,137.447155848572,3026_01,,0,,
3026_02,,黒部市役所前,,36.8709516666667,137.446965372381,3026_02,,0,,
2413_01,,福平,,36.8136669266665,137.510317753334,2413_01,,0,,
1786_01,,岩崎（雨晴海岸）,,36.8148077916534,137.041981816292,1786_01,,0,,
4448_01,,YKKAP30ビル,,36.9031426329243,137.427765534138,4448_01,,0,,
